,city,lat,lng,max_temp,humidity,cloudiness,wind_speed,country,date
0,Rikitea,-23.12,-134.97,293.89,64,0,1.1,PF,1598683749
1,Ushuaia,-54.8,-68.3,272.15,92,90,10.3,AR,1598683719
2,Kruisfontein,-34.0,24.73,285.93,76,0,0.45,ZA,1598683756
3,Yankton,42.87,-97.4,290.37,82,1,2.6,US,1598683759
4,Busselton,-33.65,115.33,290.93,35,15,4.84,AU,1598683763
5,Dikson,73.51,80.55,281.93,85,100,3.97,RU,1598683767
6,Araguaína,-7.19,-48.21,295.38,43,0,1.7,BR,1598683770
7,Punta Arenas,-53.15,-70.92,273.15,92,29,8.2,CL,1598683774
8,Brookhaven,31.58,-90.44,297.59,99,18,2.4,US,1598683777
9,Te Anau,-45.42,167.72,281.56,86,100,3.14,NZ,1598683781
10,Mar del Plata,-38.0,-57.56,286.48,100,90,3.1,AR,1598683666
11,Vernon,50.26,-119.27,288.15,47,1,5.1,CA,1598683560
12,Rēzekne,56.5,27.32,287.43,67,100,1.81,LV,1598683791
13,Sørland,67.67,12.69,282.15,76,90,1.5,NO,1598683794
14,Cidreira,-30.18,-50.21,290.7,87,31,3.46,BR,1598683798
15,Atuona,-9.8,-139.03,299.03,77,1,9.65,PF,1598683801
16,Hobart,-42.88,147.33,291.15,42,75,7.7,AU,1598683616
17,Faya,18.39,42.45,299.15,33,0,3.1,SA,1598683808
18,Atar,20.52,-13.05,301.75,42,0,4.38,MR,1598683812
19,Leningradskiy,69.38,178.42,275.72,85,100,3.62,RU,1598683816
20,Nikolskoye,59.7,30.79,288.15,82,40,1.0,RU,1598683819
21,Carnarvon,-24.87,113.63,295.15,60,0,10.3,AU,1598683823
22,Hilo,19.73,-155.09,299.15,65,20,1.5,US,1598683781
23,Mataura,-46.19,168.86,283.58,74,100,4.1,NZ,1598683830
24,Tavda,58.04,65.27,296.87,66,16,2.5,RU,1598683834
25,Raja,8.46,25.68,295.43,92,100,1.84,SS,1598683838
26,Albany,42.6,-73.97,291.48,85,100,1.4,US,1598683823
27,Fortuna,40.6,-124.16,285.37,100,90,0.29,US,1598683845
28,Bluff,-46.6,168.33,284.35,78,95,14.99,NZ,1598683848
29,Erzin,36.96,36.2,303.15,77,0,1.63,TR,1598683852
30,Strezhevoy,60.73,77.59,291.15,77,75,3.0,RU,1598683855
31,Masumbwe,-3.63,32.18,299.86,37,20,3.54,TZ,1598683859
32,Upernavik,72.79,-56.15,276.83,73,0,4.16,GL,1598683863
33,Tānsen,27.87,83.55,297.53,81,19,3.36,NP,1598683867
34,Lagoa,39.05,-27.98,296.56,93,100,5.84,PT,1598683870
35,Namatanai,-3.67,152.43,300.94,76,96,3.65,PG,1598683874
36,Aquiraz,-3.9,-38.39,299.15,78,40,4.6,BR,1598683864
37,Jalu,29.03,21.55,303.25,35,0,3.38,LY,1598683881
38,La Ronge,55.1,-105.28,281.15,100,75,1.0,CA,1598683884
39,Necochea,-38.55,-58.74,282.04,99,93,0.89,AR,1598683888
40,College,64.86,-147.8,285.15,81,75,0.95,US,1598683891
41,Alihe,50.57,123.72,287.27,88,100,1.3,CN,1598683895
42,Rawson,-43.3,-65.1,276.61,68,0,5.37,AR,1598683899
43,Barra do Bugres,-15.07,-57.18,294.39,24,0,1.89,BR,1598683902
44,Puerto Ayora,-0.74,-90.35,291.38,88,71,3.75,EC,1598683906
45,Juneau,58.3,-134.42,284.82,87,90,3.6,US,1598683910
46,Butaritari,3.07,172.79,301.38,71,0,5.56,KI,1598683913
47,Lorengau,-2.02,147.27,301.75,79,9,4.98,PG,1598683917
48,Bethel,41.37,-73.41,295.15,94,40,1.59,US,1598683920
49,Port Hedland,-20.32,118.57,307.15,24,0,6.7,AU,1598683924
50,Le Vauclin,14.55,-60.84,301.15,78,40,5.7,MQ,1598683927
51,Port Alfred,-33.59,26.89,290.25,43,3,10.29,ZA,1598683931
52,Qaanaaq,77.48,-69.36,274.3,89,8,1.98,GL,1598683935
53,Luanda,-8.84,13.23,294.15,88,75,1.5,AO,1598683631
54,Narsaq,60.92,-46.05,287.15,80,100,8.2,GL,1598683941
55,El Alto,-4.27,-81.21,289.12,88,0,6.2,PE,1598683945
56,Buckeye,33.37,-112.58,309.26,34,75,3.6,US,1598683949
57,Ostrovnoy,68.05,39.51,284.87,59,8,3.29,RU,1598683952
58,Adrar,20.5,-10.07,304.49,40,0,8.38,MR,1598683956
59,Tuktoyaktuk,69.45,-133.04,278.88,75,100,6.36,CA,1598683959
60,Norman Wells,65.28,-126.83,279.15,87,40,2.1,CA,1598683795
61,Shingū,33.73,135.98,302.15,89,75,4.1,JP,1598683966
62,Novo Cruzeiro,-17.47,-41.88,286.85,100,49,0.9,BR,1598683970
63,Saint-Philippe,-21.36,55.77,298.15,61,39,12.3,RE,1598683973
64,Ribeira Grande,38.52,-28.7,297.15,94,75,5.7,PT,1598683977
65,Luganville,-15.53,167.17,298.15,94,90,4.1,VU,1598683980
66,Dovbysh,50.37,27.99,291.91,64,44,4.41,UA,1598683984
67,Mount Gambier,-37.83,140.77,294.15,40,0,7.7,AU,1598683987
68,Kloulklubed,7.04,134.26,304.15,70,75,2.6,PW,1598683991
69,Arroyo de la Encomienda,41.61,-4.8,282.59,81,0,1.0,ES,1598683994
70,Mahébourg,-20.41,57.7,296.15,83,75,6.2,MU,1598683998
71,Tutóia,-2.76,-42.27,299.29,79,68,6.63,BR,1598684002
72,Maniitsoq,65.42,-52.9,281.48,88,100,1.4,GL,1598684005
73,Hasaki,35.73,140.83,310.37,63,20,5.7,JP,1598684009
74,Jamestown,42.1,-79.24,293.71,93,90,4.1,US,1598683725
75,Havøysund,71.0,24.66,281.15,70,20,9.8,NO,1598684017
76,Manokwari,-0.87,134.08,298.27,86,100,2.88,ID,1598684020
77,New Norfolk,-42.78,147.06,290.15,45,40,7.2,AU,1598684024
78,Christchurch,-43.53,172.63,289.15,58,53,5.1,NZ,1598684027
79,Turan,16.07,108.22,308.15,53,20,2.6,VN,1598683887
80,Sambava,-14.27,50.17,297.72,68,20,5.19,MG,1598684034
81,Adeje,28.12,-16.73,296.48,64,20,10.3,ES,1598684037
82,Mount Isa,-20.73,139.5,301.15,12,51,4.1,AU,1598684040
83,Misratah,32.38,15.09,299.53,66,0,5.12,LY,1598684044
84,Klaksvík,62.23,-6.59,282.15,87,33,0.5,FO,1598684047
85,Hermanus,-34.42,19.23,280.93,90,100,0.45,ZA,1598684051
86,Cherskiy,68.75,161.3,280.44,78,100,4.64,RU,1598684054
87,Barrow,71.29,-156.79,276.15,89,90,8.2,US,1598683830
88,Castro,-24.79,-50.01,286.19,75,0,1.16,BR,1598684061
89,Khorixas,-20.37,14.97,281.92,53,0,2.43,NA,1598684064
90,Camacha,33.08,-16.33,295.15,78,75,6.7,PT,1598684068
91,Bengkulu,-3.8,102.27,303.06,68,86,5.92,ID,1598684071
92,Alice Springs,-23.7,133.88,301.15,8,0,2.6,AU,1598683816
93,Yellowknife,62.46,-114.35,282.15,81,75,6.7,CA,1598683813
94,Port Elizabeth,-33.92,25.57,286.15,71,40,2.6,ZA,1598684021
95,Aden,12.78,45.04,304.8,65,1,5.56,YE,1598683868
96,Urubamba,-13.3,-72.12,284.59,63,0,0.78,PE,1598684089
97,Port Shepstone,-30.74,30.45,291.45,70,97,0.26,ZA,1598684092
98,Sinnamary,5.38,-52.95,297.97,89,100,3.22,GF,1598684096
99,Coahuayana Viejo,18.73,-103.68,297.72,86,94,0.75,MX,1598684099
100,Kutum,14.2,24.67,295.29,77,100,5.11,SD,1598684103
101,Banda Aceh,5.56,95.32,302.24,72,80,2.61,ID,1598684107
102,Cape Town,-33.93,18.42,282.59,81,75,2.1,ZA,1598683623
103,Gambēla,8.25,34.58,295.6,91,100,0.74,ET,1598684113
104,Kangaba,11.93,-8.42,294.38,97,90,2.2,ML,1598684116
105,Saint Cloud,45.56,-94.16,288.71,87,1,3.6,US,1598683871
106,Saskylakh,71.92,114.08,293.42,34,0,3.5,RU,1598684124
107,Kudahuvadhoo,2.67,72.89,301.51,70,80,3.25,MV,1598684127
108,Ahipara,-35.17,173.17,285.43,81,18,1.89,NZ,1598684130
109,Skibbereen,51.55,-9.27,283.15,81,20,5.7,IE,1598684134
110,Karratha,-20.74,116.85,307.04,18,0,4.2,AU,1598684137
111,East London,-33.02,27.91,289.15,51,0,5.1,ZA,1598684141
112,Xingcheng,40.62,120.72,298.03,69,8,2.34,CN,1598684145
113,Arman',59.7,150.17,286.27,48,46,6.63,RU,1598684148
114,Paamiut,61.99,-49.67,281.55,78,100,11.31,GL,1598684152
115,Broome,42.25,-75.83,294.82,100,20,3.1,US,1598684155
116,São Filipe,14.9,-24.5,299.54,82,59,0.22,CV,1598684159
117,Yulara,-25.24,130.99,302.15,9,2,2.1,AU,1598684162
118,Torbay,47.67,-52.73,285.93,87,5,7.7,CA,1598684165
119,Mingora,34.78,72.36,301.29,56,55,2.55,PK,1598684170
120,Chokurdakh,70.63,147.92,278.67,78,99,3.57,RU,1598684173
121,Salekhard,66.53,66.6,287.13,58,77,1.03,RU,1598684177
122,Terrace Bay,48.78,-87.1,287.35,92,100,4.93,CA,1598684181
123,Conceição do Araguaia,-8.26,-49.26,296.61,38,75,1.38,BR,1598684185
124,Entebbe,0.06,32.45,294.15,77,20,3.1,UG,1598684188
125,Akureyri,65.68,-18.09,281.15,93,90,0.36,IS,1598684192
126,Sitka,57.05,-135.33,285.15,81,75,2.45,US,1598684196
127,Viedma,-40.81,-63.0,278.95,62,0,5.23,AR,1598684199
128,Lavrentiya,65.58,-171.0,282.17,81,88,3.46,RU,1598684203
129,Bereda,43.27,-7.54,286.48,100,100,1.34,ES,1598684206
130,Brewster,41.4,-73.62,295.15,94,40,1.59,US,1598684210
131,Kapaa,22.08,-159.32,300.15,69,75,5.1,US,1598684213
132,Jönköping,57.78,14.16,286.15,93,100,4.6,SE,1598684217
133,Calvinia,-31.47,19.78,277.15,93,90,5.7,ZA,1598684220
134,Vanavara,60.34,102.28,294.29,46,58,2.75,RU,1598684223
135,Pallisa,1.15,33.71,296.54,66,70,2.12,UG,1598684227
136,Xai-Xai,-25.05,33.64,298.6,66,0,4.77,MZ,1598684230
137,Tiksi,71.69,128.87,281.91,68,0,4.04,RU,1598684234
138,Arraial do Cabo,-22.97,-42.03,294.87,88,0,11.67,BR,1598684085
139,Satun,6.83,100.0,307.15,56,20,4.1,TH,1598684240
140,Bredasdorp,-34.53,20.04,281.15,87,100,6.7,ZA,1598684244
141,Vestmanna,62.16,-7.17,282.15,87,54,0.5,FO,1598684248
142,Soe,-9.86,124.28,298.86,40,72,5.56,ID,1598684251
143,Henties Bay,-22.12,14.28,281.48,84,0,2.98,NA,1598684254
144,Loikaw,19.67,97.21,300.46,78,100,1.27,MM,1598684258
145,Le Moule,16.33,-61.35,300.15,78,20,1.5,GP,1598684262
146,Esperance,-33.87,121.9,285.15,81,75,11.8,AU,1598684265
147,Kailua,21.4,-157.74,300.15,61,40,4.1,US,1598684268
148,Patti,31.28,74.86,305.15,79,40,1.0,IN,1598684272
149,Khopoli,18.78,73.33,303.71,94,90,3.1,IN,1598684276
150,Kununurra,-15.77,128.73,307.15,10,0,5.7,AU,1598684279
151,Tuatapere,-46.13,167.68,283.14,81,100,4.57,NZ,1598684283
152,Coyhaique,-45.58,-72.07,269.39,94,17,3.41,CL,1598684287
153,Tosya,41.02,34.04,297.72,20,0,1.35,TR,1598684290
154,Saldanha,-33.01,17.94,282.15,76,56,1.5,ZA,1598684294
155,Swan Hill,-35.34,143.55,290.24,57,0,3.69,AU,1598684297
156,Topolobampo,25.6,-109.05,302.04,75,100,4.47,MX,1598684301
157,Khatanga,71.97,102.5,293.89,32,13,4.32,RU,1598684304
158,George Town,5.41,100.34,305.15,66,20,3.6,MY,1598684308
159,Port Lincoln,-34.73,135.87,293.86,42,28,8.7,AU,1598684311
160,Plettenberg Bay,-34.05,23.37,283.45,73,93,9.03,ZA,1598684314
161,Cabo San Lucas,22.89,-109.91,298.71,92,100,0.89,MX,1598684318
162,Port Keats,-14.25,129.55,306.73,20,43,4.5,AU,1598684321
163,Pevek,69.7,170.31,277.77,88,100,1.7,RU,1598684325
164,Gornoye Loo,43.71,39.6,299.15,57,0,4.0,RU,1598684329
165,Ponta do Sol,32.67,-17.1,296.15,78,40,5.7,PT,1598684332
166,Tessalit,20.2,1.01,301.8,51,92,7.76,ML,1598684336
167,Provideniya,64.38,-173.3,283.86,73,100,1.25,RU,1598684340
168,Yanam,16.73,82.22,305.15,66,40,4.6,IN,1598684343
169,Northam,51.03,-4.22,285.37,78,70,5.36,GB,1598684346
170,Talnakh,69.49,88.4,287.15,87,61,3.0,RU,1598684350
171,Ntoum,0.38,9.78,297.15,94,75,1.5,GA,1598684353
172,Aksu,41.12,80.26,299.39,27,62,2.15,CN,1598684356
173,Longyearbyen,78.22,15.64,275.15,88,75,3.6,SJ,1598684360
174,Khunti,23.08,85.28,301.15,69,75,5.1,IN,1598684363
175,Olinda,-8.01,-34.86,297.15,88,75,3.1,BR,1598684367
176,Bambous Virieux,-20.34,57.76,297.04,83,75,6.2,MU,1598684370
177,Lukulu,-14.37,23.24,298.92,44,0,2.92,ZM,1598684374
178,Okhotsk,59.38,143.3,288.45,49,61,2.96,RU,1598684377
179,Vaini,-21.2,-175.2,297.15,88,75,3.1,TO,1598684381
180,Ardabil,38.25,48.29,294.15,49,20,3.1,IR,1598684385
181,Kavieng,-2.57,150.8,301.84,74,0,5.29,PG,1598684388
182,Lālmohan,22.34,90.74,304.5,68,31,5.69,BD,1598684392
183,Abéché,13.83,20.83,294.15,75,20,2.1,TD,1598684395
184,Palmer,42.16,-72.33,292.59,100,75,1.06,US,1598684398
185,Warwick,41.7,-71.42,294.26,88,90,2.08,US,1598684212
186,Oranjemund,-28.55,16.43,286.35,67,5,5.78,NA,1598684406
187,Nouakchott,18.09,-15.98,301.15,78,75,7.2,MR,1598684409
188,Clyde River,70.47,-68.59,279.15,87,1,6.2,CA,1598684413
189,Alta Floresta,-9.88,-56.09,293.84,46,100,0.57,BR,1598684395
190,Kualakapuas,-3.01,114.39,304.15,62,20,2.6,ID,1598684420
191,Primorka,47.28,39.06,297.04,42,0,2.32,RU,1598684424
192,Kemin,42.78,75.69,298.57,26,0,1.6,KG,1598684427
193,Mehamn,71.04,27.85,282.63,66,0,6.43,NO,1598684431
194,Broken Hill,-31.95,141.43,296.15,13,0,5.7,AU,1598684435
195,Hithadhoo,-0.6,73.08,301.12,76,100,6.65,MV,1598684438
196,Arsen'yev,44.16,133.27,291.97,94,100,2.62,RU,1598684442
197,Darnah,32.77,22.64,300.03,61,0,4.16,LY,1598684445
198,Nome,64.5,-165.41,287.15,82,40,0.7,US,1598684427
199,Kahului,20.89,-156.47,300.15,61,1,5.1,US,1598684452
200,Vestmannaeyjar,63.44,-20.27,283.96,89,100,6.23,IS,1598684456
201,Fort Frances,48.6,-93.4,285.93,81,1,3.1,CA,1598684345
202,Puerto Madero,14.72,-92.42,299.19,81,100,1.77,MX,1598684463
203,Diu,20.71,70.98,301.72,81,100,8.57,IN,1598684466
204,Chui,-33.7,-53.46,287.77,95,100,2.03,UY,1598684470
205,Santana do Mundaú,-9.17,-36.22,294.15,100,40,1.0,BR,1598684473
206,Tadine,-21.55,167.88,294.01,75,100,9.48,NC,1598684477
207,Eureka,40.8,-124.16,285.93,100,0,1.41,US,1598684234
208,Katsuura,35.13,140.3,307.15,59,20,6.7,JP,1598684484
209,South Lake Tahoe,38.93,-119.98,291.48,62,1,1.43,US,1598684339
210,Dustlik,40.52,68.04,306.9,19,0,0.67,UZ,1598684491
211,Torbat-e Jām,35.24,60.62,301.27,15,0,8.26,IR,1598684495
212,Iguape,-24.71,-47.56,289.85,95,6,1.58,BR,1598684476
213,Acapulco de Juárez,16.86,-99.89,299.02,81,100,1.9,MX,1598684502
214,Beringovskiy,63.05,179.32,283.11,83,100,7.02,RU,1598684505
215,Lebu,-37.62,-73.65,279.23,77,0,6.4,CL,1598684509
216,Oloron-Sainte-Marie,43.19,-0.61,287.15,87,20,1.0,FR,1598684513
217,Klyuchi,52.27,79.17,296.21,40,17,1.93,RU,1598684516
218,Coalville,52.72,-1.37,283.71,81,20,5.1,GB,1598684520
219,Hong Kong,22.29,114.16,307.59,84,20,1.34,HK,1598684331
220,Hervey Bay,-25.3,152.85,294.15,46,0,9.3,AU,1598684526
221,Kaitangata,-46.28,169.85,283.71,67,100,2.68,NZ,1598684530
222,Huarmey,-10.07,-78.15,288.64,86,40,3.58,PE,1598684533
223,Burnie,-41.07,145.92,286.48,79,40,4.47,AU,1598684519
224,Qarqīn,37.42,66.04,305.69,16,0,4.29,AF,1598684540
225,Dunedin,-45.87,170.5,287.59,49,80,1.34,NZ,1598684544
226,Kavaratti,10.57,72.64,302.15,74,75,3.1,IN,1598684548
227,Junín,-34.58,-60.94,284.26,97,100,0.45,AR,1598684551
228,Ovalle,-30.6,-71.2,281.26,56,19,0.48,CL,1598684555
229,Pangnirtung,66.15,-65.71,279.7,62,0,3.15,CA,1598684558
230,Juazeiro,-9.41,-40.5,292.42,83,42,6.64,BR,1598684562
231,Quatre Cocos,-20.21,57.76,297.04,83,75,6.2,MU,1598684566
232,Arlit,18.74,7.39,301.56,55,80,3.63,NE,1598684569
233,Cherdyn',60.4,56.48,290.8,88,100,2.64,RU,1598684573
234,Samaná,19.21,-69.34,298.69,90,13,2.41,DO,1598684442
235,Galesong,-5.32,119.37,307.15,44,40,5.7,ID,1598684579
236,Oranjestad,12.52,-70.03,302.15,79,40,6.2,AW,1598684480
237,Fram,-26.98,-55.88,294.51,66,0,3.24,PY,1598684587
238,Ekhabi,53.51,142.97,287.31,65,0,6.97,RU,1598684590
239,Troitskoye,52.98,84.68,294.8,44,0,2.18,RU,1598684594
240,Belmonte,-15.86,-38.88,293.15,94,20,1.0,BR,1598684597
241,Petropavlovsk-Kamchatskiy,53.05,158.65,284.15,100,75,2.0,RU,1598684600
242,Mandalgovi,45.76,106.27,293.31,36,100,2.31,MN,1598684604
243,Wesselsbron,-27.85,26.37,282.59,44,0,3.11,ZA,1598684607
244,Lipari,38.47,14.95,302.04,52,0,0.45,IT,1598684611
245,Krasnosel'kup,65.7,82.47,292.78,55,0,2.66,RU,1598684614
246,Ulagan,50.63,87.96,284.82,68,98,1.36,RU,1598684618
247,Emerald,-23.53,148.17,299.15,27,0,8.2,AU,1598684334
248,Montevideo,-34.83,-56.17,287.04,100,20,1.0,UY,1598684362
249,Cururupu,-1.83,-44.87,296.86,90,6,2.01,BR,1598684628
250,Kieta,-6.22,155.63,301.02,76,97,2.34,PG,1598684632
251,Hualmay,-11.1,-77.61,288.8,86,78,3.99,PE,1598684635
252,Thompson,55.74,-97.86,284.15,81,90,2.6,CA,1598684638
253,Meybod,32.25,54.02,302.15,12,0,3.1,IR,1598684641
254,Cap Malheureux,-19.98,57.61,297.04,72,8,5.36,MU,1598684645
255,Hofn,64.25,-15.21,283.55,65,100,3.57,IS,1598684649
256,Zverinogolovskoye,54.46,64.85,300.01,49,49,4.58,RU,1598684652
257,Salinópolis,-0.61,-47.36,299.01,86,10,4.46,BR,1598684656
258,Gazli,40.13,63.45,305.13,15,0,6.15,UZ,1598684659
259,Usakos,-22.0,15.6,284.01,44,0,1.28,NA,1598684663
260,Polokwane,-23.9,29.47,293.15,40,29,1.0,ZA,1598684666
261,Honningsvåg,70.98,25.97,282.46,73,90,7.49,NO,1598684669
262,Tazovsky,67.47,78.7,289.09,62,99,2.9,RU,1598684673
263,Lüderitz,-26.65,15.16,286.44,69,73,5.98,NA,1598684676
264,Rockland,41.17,-74.05,294.82,93,100,2.85,US,1598684380
265,Okolona,38.14,-85.69,296.15,94,90,2.6,US,1598684683
266,Egvekinot,66.32,-179.17,277.52,76,100,6.55,RU,1598684686
267,Yeppoon,-23.13,150.73,295.15,53,40,5.7,AU,1598684690
268,Airai,-8.93,125.41,295.1,56,5,2.94,TL,1598684693
269,Bousso,10.48,16.71,297.56,88,100,2.38,TD,1598684697
270,Codrington,-38.27,141.97,289.55,75,0,6.27,AU,1598684700
271,Grindavik,63.84,-22.43,282.15,100,75,4.1,IS,1598684704
272,Sorong,-0.88,131.25,301.1,79,100,5.51,ID,1598684707
273,Edson,53.58,-116.44,287.15,71,90,5.1,CA,1598684454
274,Avarua,-21.21,-159.78,295.15,88,0,1.5,CK,1598684534
275,Sawākin,19.11,37.33,308.8,40,0,1.5,SD,1598684717
276,Mossamedes,-15.2,12.15,290.03,72,100,2.13,AO,1598684720
277,Saint-Raymond,45.47,-73.61,291.48,77,90,1.0,CA,1598684724
278,Havre-St-Pierre,50.23,-63.6,282.15,87,1,4.6,CA,1598684728
279,Muhafazat Lahij,13.17,44.58,305.54,45,18,2.37,YE,1598684731
280,Rio Grande,-32.03,-52.1,288.71,98,19,2.58,BR,1598684734
281,Daru,-9.08,143.21,298.9,88,91,8.55,PG,1598684738
282,Monrovia,6.3,-10.8,296.15,94,75,2.6,LR,1598684741
283,Lompoc,34.64,-120.46,287.15,87,90,2.1,US,1598684745
284,Craig,40.52,-107.55,292.15,48,20,2.1,US,1598684748
285,Praia,14.92,-23.51,299.15,83,40,1.0,CV,1598684751
286,Salalah,17.02,54.09,299.15,94,90,2.1,OM,1598684755
287,Boende,-0.22,20.87,297.62,76,99,1.42,CD,1598684758
288,Linares,-35.85,-71.6,280.88,90,94,2.97,CL,1598684761
289,Esna,25.29,32.55,306.54,20,0,3.55,EG,1598684765
290,Iqaluit,63.75,-68.51,281.15,70,75,4.1,CA,1598684769
291,Borogontsy,62.67,131.17,293.7,40,100,0.79,RU,1598684773
292,Richards Bay,-28.78,32.04,293.04,74,99,0.95,ZA,1598684776
293,Korla,41.76,86.15,298.71,27,89,3.99,CN,1598684780
294,Sola,-13.88,167.55,299.15,94,90,2.1,VU,1598684783
295,Marsh Harbour,26.54,-77.06,301.74,74,100,3.49,BS,1598684722
296,Poya,-21.35,165.15,292.58,74,69,5.39,NC,1598684790
297,Saint George,37.1,-113.58,304.15,16,1,1.5,US,1598684794
298,Praia da Vitória,38.73,-27.07,297.15,73,40,3.15,PT,1598684797
299,Miranda,3.25,-76.23,293.15,88,75,1.0,CO,1598684801
300,Ayorou,14.73,0.92,300.07,71,98,7.33,NE,1598684642
301,New Ross,52.4,-6.94,283.15,85,7,3.58,IE,1598684808
302,Malbork,54.04,19.03,290.37,93,75,4.1,PL,1598684811
303,Nemuro,43.32,145.57,289.15,87,75,5.7,JP,1598684814
304,Kohlu,29.9,69.25,303.03,37,0,1.59,PK,1598684686
305,Barranca,-10.75,-77.77,288.96,87,100,3.51,PE,1598684572
306,Demyansk,57.64,32.47,286.13,92,93,2.36,RU,1598684824
307,Saint-Joseph,-21.37,55.62,298.15,61,18,12.3,RE,1598684828
308,Nouadhibou,20.93,-17.03,298.15,88,75,2.1,MR,1598684832
309,Soyo,-6.13,12.37,295.15,94,75,1.5,AO,1598684835
310,Krasnoarmeyskiy,47.01,42.21,298.84,34,0,4.45,RU,1598684839
311,Souillac,-20.52,57.52,296.15,83,75,6.2,MU,1598684842
312,Río Gallegos,-51.62,-69.22,272.15,68,98,8.7,AR,1598684846
313,Agboville,5.93,-4.21,295.98,91,100,1.3,CI,1598684850
314,Oyama,36.3,139.8,312.04,52,20,4.1,JP,1598684853
315,Limbang,4.75,115.0,303.15,74,75,3.6,MY,1598684857
316,Lugovoy,42.95,72.76,299.73,23,0,3.78,KZ,1598684860
317,Haines Junction,60.75,-137.51,281.16,84,100,1.01,CA,1598684864
318,Omboué,-1.57,9.26,297.3,81,100,3.22,GA,1598684867
319,Vieques,18.43,-65.83,301.15,78,40,3.6,PR,1598684870
320,Coquimbo,-29.95,-71.34,280.15,87,16,3.6,CL,1598684874
321,Hobyo,5.35,48.53,301.57,61,100,10.04,SO,1598684878
322,Taiyuan,37.87,112.56,304.15,31,1,3.0,CN,1598684697
323,Bella Union,-30.28,-57.6,291.27,95,0,1.04,UY,1598684885
324,Rocha,-34.48,-54.33,286.49,96,76,1.85,UY,1598684889
325,Nanton,50.35,-113.77,289.26,54,6,0.45,CA,1598684893
326,San Patricio,19.22,-104.7,298.48,86,99,3.38,MX,1598684896
327,Kuching,1.55,110.33,300.15,94,40,3.1,MY,1598684900
328,Padang,-0.95,100.35,301.88,70,90,2.08,ID,1598684903
329,Khandagayty,50.73,92.05,288.05,54,100,5.71,RU,1598684907
330,Distrikt Brokopondo,4.75,-55.17,297.75,89,84,1.53,SR,1598684910
331,Srednekolymsk,67.45,153.68,281.73,73,99,3.22,RU,1598684914
332,Fukuechō,32.69,128.84,303.15,79,20,4.1,JP,1598684917
333,Suihua,46.64,127.0,291.35,92,92,5.22,CN,1598684921
334,Lagos,6.58,3.75,298.15,88,40,2.6,NG,1598684284
335,Hamilton,39.18,-84.53,295.37,94,40,1.29,US,1598684634
336,Eldorado,-23.79,-54.28,290.5,77,0,2.42,BR,1598684931
337,Nikolayevsk-on-Amur,53.14,140.73,290.95,41,0,3.97,RU,1598684935
338,Lucapa,-8.42,20.74,299.74,53,1,0.66,AO,1598684648
339,Coalinga,36.14,-120.36,297.04,38,0,2.73,US,1598684931
340,Sokołów Podlaski,52.41,22.25,287.59,89,100,4.73,PL,1598684945
341,Ürümqi,43.8,87.6,298.15,36,20,2.0,CN,1598684310
342,Lata,40.16,-8.33,289.26,93,0,2.68,PT,1598684952
343,Falun,60.6,15.63,286.48,93,60,1.5,SE,1598684956
344,Laguna,38.42,-121.42,295.15,60,1,2.1,US,1598684960
345,Beruwala,6.48,79.98,302.74,66,11,5.42,LK,1598684963
346,Cedar Rapids,42.01,-91.64,294.82,94,1,3.1,US,1598684967
347,Faanui,-16.48,-151.75,298.07,81,71,10.99,PF,1598684970
348,Portland,45.52,-122.68,292.15,63,1,3.1,US,1598684940
349,Korčula,42.96,17.14,298.15,73,0,0.5,HR,1598684977
350,Asău,46.43,26.4,295.37,62,0,2.24,RO,1598684981
351,Tevaitoa,-16.78,-151.5,298.12,81,34,10.95,PF,1598684984
352,Ribeira Brava,32.65,-17.07,296.15,78,40,5.7,PT,1598684988
353,Tocopilla,-22.09,-70.2,287.57,66,29,2.21,CL,1598684991
354,Flinders,-34.58,150.86,292.59,55,0,0.89,AU,1598684995
355,Ugoofaaru,5.67,73.0,302.07,66,13,3.6,MV,1598684998
356,Cayenne,4.93,-52.33,296.15,100,98,1.0,GF,1598685002
357,Vrangel',42.73,133.08,293.18,88,100,9.59,RU,1598685006
358,Kaya,13.09,-1.08,297.21,84,81,6.32,BF,1598685009
359,‘Ewa Beach,21.32,-158.01,300.15,61,1,2.1,US,1598684871
360,San Ignacio,17.16,-89.07,299.26,85,78,1.56,BZ,1598685017
361,Bandarbeyla,9.49,50.81,304.16,46,0,11.37,SO,1598685020
362,Tasiilaq,65.61,-37.64,280.15,70,100,6.2,GL,1598685024
363,Bartica,6.4,-58.62,297.15,100,75,2.1,GY,1598685027
364,Saint-Louis,16.33,-15.0,300.15,94,87,3.95,SN,1598685031
365,Alyangula,-13.85,136.42,302.15,51,1,5.1,AU,1598685034
366,Kattivākkam,13.22,80.32,307.15,56,40,3.6,IN,1598685038
367,Dingle,11.0,122.67,303.75,74,100,3.74,PH,1598685042
368,São João da Barra,-21.64,-41.05,295.16,87,0,6.65,BR,1598685045
369,Basco,20.45,121.97,302.28,79,100,7.69,PH,1598685049
370,Pisco,-13.7,-76.22,290.15,82,90,1.0,PE,1598685053
371,Utevka,52.9,50.95,297.87,52,100,5.61,RU,1598685056
372,Pacific Grove,36.62,-121.92,286.48,97,0,0.63,US,1598684852
373,Aykhal,66.0,111.5,291.15,27,75,4.0,RU,1598685063
374,Celestún,20.87,-90.4,300.31,83,99,6.69,MX,1598685067
375,Keşan,40.86,26.63,302.15,32,0,6.2,TR,1598685070
376,Galle,6.04,80.22,302.55,69,5,6.86,LK,1598685073
377,Aripuanã,-9.17,-60.63,295.17,97,97,0.81,BR,1598685077
378,Saint Paul Harbor,57.79,-152.41,284.55,83,57,2.08,US,1598685080
379,Sawtell,-30.38,153.1,292.15,55,0,4.1,AU,1598685084
380,Mayo,38.89,-76.51,297.04,100,1,1.5,US,1598685088
381,Bilibino,68.05,166.44,282.36,63,100,2.55,RU,1598685091
382,Lakes Entrance,-37.88,147.98,290.93,57,0,1.34,AU,1598685095
383,Banjar,-8.19,114.97,302.15,74,20,7.2,ID,1598685098
384,Meoqui,28.28,-105.48,297.84,45,92,0.6,MX,1598685102
385,Natchez,31.56,-91.4,298.15,94,75,2.1,US,1598684894
386,Cravo Norte,6.3,-70.2,297.33,94,100,2.11,CO,1598685109
387,Baracoa,20.35,-74.5,299.89,83,60,2.63,CU,1598685113
388,Coxim,-18.51,-54.76,293.05,26,0,1.99,BR,1598685116
389,Muzhi,65.37,64.67,287.41,60,42,3.41,RU,1598685120
390,Boromo,11.75,-2.93,295.92,92,60,3.64,BF,1598685065
391,Tongren,27.72,109.19,307.61,46,0,1.48,CN,1598684883
392,Nanortalik,60.14,-45.24,282.27,77,39,4.67,GL,1598685130
393,Longyan,25.11,117.02,304.86,53,92,0.15,CN,1598685134
394,Biak,-0.91,122.88,301.56,61,100,5.39,ID,1598685137
395,Campo Grande,-20.44,-54.65,297.15,23,0,6.7,BR,1598685141
396,Tskaltubo,42.33,42.6,299.15,65,0,1.5,GE,1598685144
397,Muborak,39.26,65.15,304.85,21,0,2.65,UZ,1598685148
398,St. George's,12.06,-61.75,300.15,83,20,6.2,GD,1598685152
399,Port Blair,11.67,92.75,303.78,65,80,4.17,IN,1598685156
400,Ialibu,-6.28,143.99,290.21,97,100,0.52,PG,1598685159
401,Teya,60.38,92.63,291.16,66,0,2.94,RU,1598685163
402,Yima,34.74,111.88,309.82,99,0,6.96,CN,1598685166
403,Nizhnyaya Omka,55.43,74.94,296.96,60,1,5.04,RU,1598685170
404,Dubti,11.74,41.09,305.47,39,3,8.25,ET,1598685173
405,Pathein,16.78,94.73,305.14,64,85,5.69,MM,1598685177
406,Ylöjärvi,61.56,23.6,287.15,76,0,1.0,FI,1598685180
407,Natal,-5.79,-35.21,295.15,100,40,2.1,BR,1598684927
408,Freiberg,50.92,13.37,290.37,77,100,2.68,DE,1598685187
409,Jérémie,18.65,-74.12,300.3,81,1,2.25,HT,1598685190
410,Ayan,56.45,138.17,287.51,65,0,2.24,RU,1598685194
411,Guerrero Negro,27.98,-114.06,297.66,72,0,1.5,MX,1598685197
412,Huanren,41.26,125.37,299.46,75,74,0.45,CN,1598685201
413,Zhirnovsk,50.98,44.77,295.2,58,0,4.24,RU,1598685204
414,Leh,34.17,77.58,290.78,26,1,2.81,IN,1598685208
415,Gamba,-2.65,10.0,296.4,88,100,2.97,GA,1598685212
416,Bathsheba,13.22,-59.52,301.15,74,20,8.2,BB,1598685215
417,Vila do Maio,15.13,-23.22,299.15,83,40,1.0,CV,1598685218
418,Obo,5.4,26.49,296.46,90,93,2.49,CF,1598685222
419,Garchitorena,13.88,123.69,299.9,74,100,3.03,PH,1598685226
420,Zyryanka,65.75,150.85,283.12,60,68,3.15,RU,1598685230
421,Ribera,37.5,13.26,295.93,83,0,4.47,IT,1598685233
422,Vanderhoof,54.02,-124.02,281.22,57,0,3.45,CA,1598685237
423,Tiznit Province,29.58,-9.5,293.43,65,0,0.56,MA,1598685240
424,Pingzhuang,42.04,119.29,301.55,49,1,2.29,CN,1598685244
425,Manadhoo,5.77,73.38,302.05,66,46,3.73,MV,1598685247
426,Tabas,33.6,56.92,307.15,11,0,3.1,IR,1598685250
427,Zhaoyang,42.68,126.03,296.67,76,3,3.37,CN,1598685254
428,Taoudenni,22.68,-3.98,305.0,46,0,5.12,ML,1598685257
429,Ati,13.22,18.34,297.03,84,100,4.51,TD,1598685260
430,Rockhampton,-23.38,150.5,295.15,53,40,5.7,AU,1598684965
431,Laas,46.62,10.7,288.71,100,90,1.5,IT,1598685267
432,Belyy Yar,53.6,91.39,295.15,53,40,4.0,RU,1598685270
433,Ilhabela,-23.78,-45.36,293.92,74,0,1.59,BR,1598685274
434,Makkah al Mukarramah,21.43,39.83,310.98,12,0,5.91,SA,1598685277
435,Maţāy,28.42,30.78,303.41,40,0,5.79,EG,1598685281
436,Bah,26.87,78.6,306.46,55,23,6.7,IN,1598685284
437,Vangaindrano,-23.35,47.6,296.84,75,18,3.66,MG,1598685287
438,Narodychi,51.2,29.08,291.55,67,89,3.52,UA,1598685291
439,Acireale,37.61,15.17,300.93,69,0,2.6,IT,1598684996
440,Ambovombe,-25.17,46.08,301.08,41,0,3.08,MG,1598685297
441,Severo-Kuril'sk,50.68,156.12,283.62,87,91,6.0,RU,1598685301
442,Ponnāni,10.77,75.93,303.15,66,40,3.6,IN,1598685304
443,Elbistan,38.21,37.2,299.8,20,0,1.06,TR,1598685307
444,Yar-Sale,66.83,70.83,283.33,77,100,6.8,RU,1598685311
445,Wilmington,34.23,-77.94,301.48,88,1,4.6,US,1598685192
446,Solntsevo,51.42,36.75,291.48,82,90,2.0,RU,1598685318
447,Aranos,-24.13,19.12,279.78,62,0,5.09,NA,1598685321
448,Ciudad del Carmen,18.63,-91.83,301.74,81,100,4.14,MX,1598685073
449,Mareeba,-17.0,145.43,295.37,73,25,2.68,AU,1598685097
450,Certeju de Sus,45.97,22.97,296.43,42,0,1.55,RO,1598685331
451,Geraldton,-28.77,114.6,291.15,55,75,6.7,AU,1598685334
452,Ust-Tsilma,65.44,52.15,286.09,52,82,3.53,RU,1598685337
453,Bonthe,7.53,-12.51,297.26,89,100,3.49,SL,1598685341
454,Pingliang,35.54,106.69,299.65,57,100,6.46,CN,1598685344
455,Orlik,52.52,99.83,282.08,82,100,1.63,RU,1598685348
456,Protvino,54.87,37.22,287.15,93,90,4.0,RU,1598685351
457,Shirokiy,49.76,129.52,295.13,54,100,3.51,RU,1598685354
458,Batemans Bay,-35.72,150.18,290.37,67,0,3.6,AU,1598685358
459,Comodoro Rivadavia,-45.87,-67.5,272.15,74,0,4.1,AR,1598685079
460,Rabaul,-4.2,152.17,301.69,74,99,4.73,PG,1598685364
461,Buraidah,26.33,43.98,306.15,22,0,1.5,SA,1598685368
462,Paphos,34.77,32.42,303.71,70,0,3.6,CY,1598685371
463,Olafsvik,64.89,-23.71,283.74,89,100,4.73,IS,1598685374
464,Mastic Beach,40.77,-72.85,296.15,83,75,3.1,US,1598685378
465,Bubaque,11.28,-15.83,299.91,80,100,6.62,GW,1598685381
466,Nicoya,10.15,-85.45,296.97,92,100,0.74,CR,1598685385
467,Kurisove,46.97,30.96,299.82,61,100,4.0,UA,1598685388
468,Fort Nelson,58.81,-122.7,283.15,93,90,2.1,CA,1598685365
469,Jiazi,22.88,116.07,303.74,67,75,4.08,CN,1598685395
470,Inírida,3.87,-67.92,295.87,97,100,0.93,CO,1598685399
471,Pangai,-19.8,-174.35,298.15,78,20,6.2,TO,1598685402
472,‘Āhuimanu,21.44,-157.84,300.15,61,40,4.1,US,1598685351
473,Tacna,-18.01,-70.25,288.71,80,100,0.79,PE,1598685409
474,Filingué,14.35,3.32,299.15,76,100,7.92,NE,1598685413
475,Guamúchil,25.47,-108.1,300.93,77,100,4.47,MX,1598685417
476,Isangel,-19.55,169.27,298.15,88,90,6.2,VU,1598685420
477,Erzurum Province,40.0,41.5,292.15,39,0,1.5,TR,1598685151
478,Melfi,41.0,15.65,297.59,73,5,2.6,IT,1598685427
479,San Antonio,29.42,-98.49,301.48,78,1,2.6,US,1598685422
480,Grand Gaube,-20.01,57.66,297.04,73,14,4.92,MU,1598685433
481,Berlevåg,70.86,29.09,282.79,64,0,4.74,NO,1598685436
482,Beloha,-25.17,45.05,302.92,36,0,2.06,MG,1598685440
483,Umba,66.69,34.34,285.06,66,0,2.98,RU,1598685443
484,La Plata,-34.92,-57.95,287.04,100,40,0.97,AR,1598685447
485,Kuzino,57.02,59.44,299.01,45,98,3.29,RU,1598685450
486,Taboga,46.27,13.11,299.15,87,75,0.47,IT,1598685453
487,Vila Franca do Campo,37.72,-25.43,296.15,100,40,5.7,PT,1598685457
488,Baoro,5.67,15.97,293.95,92,100,1.38,CF,1598685460
489,Jiaozuo,35.24,113.23,306.25,42,0,4.69,CN,1598685171
490,Pedersore,63.65,22.68,287.04,87,100,1.0,FI,1598685467
491,Aloleng,16.13,119.78,303.02,73,100,4.28,PH,1598685471
492,Vila Velha,-20.33,-40.29,293.15,94,75,1.0,BR,1598685332
493,Katherine,-14.47,132.27,307.15,16,7,6.2,AU,1598685478
494,Benjamín Aceval,-24.97,-57.57,297.15,50,29,2.6,PY,1598685481
495,Caçador,-26.78,-51.02,287.2,72,3,1.59,BR,1598685485
496,Wanning,18.8,110.4,304.38,67,22,2.65,CN,1598685488
497,Brainerd,46.36,-94.2,289.15,72,1,2.6,US,1598685467
498,Buin,-33.73,-70.75,281.15,75,100,3.6,CL,1598685495
499,Isla del Bosque,22.73,-105.85,298.39,87,100,2.16,MX,1598685499
500,Zholymbet,51.74,71.71,298.57,40,0,3.09,KZ,1598685502
501,Konëvo,62.12,39.32,283.54,97,100,2.4,RU,1598685506
502,San Angelo,31.46,-100.44,302.59,52,0,0.45,US,1598685456
503,Yumen,40.28,97.2,291.78,39,100,0.85,CN,1598685512
504,Kanniyākumāri,8.08,77.57,302.53,68,100,9.48,IN,1598685516
505,Vazhiny,60.96,34.02,286.07,88,100,2.78,RU,1598685519
506,Verkhoyansk,67.54,133.38,290.86,29,21,1.39,RU,1598685523
507,Tefé,-3.35,-64.71,296.02,96,100,0.37,BR,1598685526
508,Bumba,2.18,22.47,296.4,90,100,1.17,CD,1598685529
509,Münster,51.96,7.63,287.59,87,51,2.6,DE,1598685420
510,Ulladulla,-35.35,150.47,293.15,40,0,3.6,AU,1598685536
511,Vanimo,-2.67,141.3,298.16,91,100,4.91,PG,1598685540
512,Tapes,-30.67,-51.4,288.97,90,0,0.94,BR,1598685543
513,Villerupt,49.47,5.93,286.48,88,0,4.27,FR,1598685546
514,Mackay,-21.15,149.2,295.15,60,90,10.8,AU,1598685550
515,Caldwell,43.66,-116.69,291.48,72,1,0.55,US,1598685554
516,Quelimane,-17.88,36.89,296.15,73,0,2.1,MZ,1598685320
517,Horn,51.87,8.95,287.59,71,0,4.6,DE,1598685560
518,San Quintín,30.48,-115.95,295.0,74,0,4.72,MX,1598685564
519,Cachoeira do Sul,-30.04,-52.89,289.51,96,0,1.69,BR,1598685281
520,Verāval,20.9,70.37,301.54,82,99,9.69,IN,1598685571
521,Vīsāvadar,21.38,70.68,303.02,75,100,6.45,IN,1598685574
522,Lenger,42.18,69.88,303.15,25,0,3.0,KZ,1598685577
523,Cedar City,37.68,-113.06,295.15,21,1,3.1,US,1598685460
524,Husavik,66.04,-17.34,281.15,93,90,0.97,IS,1598685584
525,Ştefan cel Mare,46.98,26.52,295.37,56,0,6.2,RO,1598685588
526,Fomboni,-12.28,43.74,298.1,74,0,5.41,KM,1598685592
527,Diveyevo,55.04,43.24,291.64,78,74,3.74,RU,1598685595
528,Kjøllefjord,70.95,27.35,282.48,67,30,5.08,NO,1598685598
529,Vao,-22.67,167.48,293.42,74,100,8.89,NC,1598685602
530,Saltpond,5.21,-1.06,297.18,85,100,3.99,GH,1598685605
531,Eucaliptus,-17.58,-67.52,280.19,67,0,2.05,BO,1598685608
532,Ocós,14.51,-92.19,292.04,96,100,1.95,GT,1598685612
533,Luangwa,-15.62,30.42,303.59,33,0,1.52,ZM,1598685615
534,Bayan,46.08,127.4,293.15,80,85,6.44,CN,1598685619
535,Rong Kwang,18.34,100.32,308.15,59,40,3.1,TH,1598685622
536,Boddam,57.47,-1.78,284.26,87,75,9.3,GB,1598685626
537,Inhambane,-23.86,35.38,299.15,78,40,6.2,MZ,1598685630
538,Hastings,50.86,0.57,286.48,83,97,2.24,GB,1598685440
539,Ginir,7.13,40.7,293.37,60,48,3.19,ET,1598685637
540,Vostok,46.49,135.88,285.43,100,100,2.15,RU,1598685641
541,Kumul,42.8,93.45,299.65,21,16,2.34,CN,1598685644
542,Mpongwe,-13.51,28.16,299.45,34,0,3.76,ZM,1598685648
543,Anadyr,64.75,177.48,282.15,93,90,1.0,RU,1598685606
544,San Vicente,-26.62,-54.13,291.17,74,4,1.45,AR,1598685655
545,Chastyye,57.29,54.97,295.65,63,94,4.4,RU,1598685658
546,Bichena,10.45,38.2,285.38,100,100,2.06,ET,1598685662
547,Kushmurun,52.45,64.63,300.74,33,70,5.41,KZ,1598685666
548,De-Kastri,51.47,140.78,291.76,48,99,2.99,RU,1598685669
549,Cairns,-16.92,145.77,296.15,73,75,7.2,AU,1598685536
550,Zambezi,-13.54,23.1,298.49,50,32,1.87,ZM,1598685676
551,Savannah Bight,16.45,-85.85,302.24,78,0,10.47,HN,1598685680
552,Dingli,35.86,14.38,301.15,74,20,3.6,MT,1598685683
553,Imeni Zhelyabova,58.95,36.6,286.1,90,100,3.58,RU,1598685687
554,Malpe,13.35,74.72,299.15,88,75,1.5,IN,1598685690
555,Kosonsoy,41.26,71.55,301.15,34,0,2.1,UZ,1598685694
556,Autun,46.95,4.3,287.15,87,12,2.1,FR,1598685697
557,Goderich,43.75,-81.72,298.15,69,100,0.89,CA,1598685701
558,Bilma,18.69,12.92,303.46,48,100,8.29,NE,1598685704
559,Mukhtolovo,55.46,43.2,291.07,81,57,3.56,RU,1598685708
560,Palauig,15.44,119.9,303.05,70,96,2.38,PH,1598685712
