,city,lat,lng,max_temp,humidity,cloudiness,wind_speed,country,date
0,Riviere-au-Renard,49.0,-64.4,282.15,49,5,2.6,CA,1603031284
1,Georgiyevskoye,58.73,45.02,276.98,94,100,4.75,RU,1603031285
2,Norman Wells,65.28,-126.83,260.15,84,20,2.6,CA,1603030993
3,Lompoc,34.64,-120.46,284.15,87,1,2.17,US,1603031287
4,East London,-33.02,27.91,292.15,72,13,8.2,ZA,1603031033
5,Tilichiki,60.47,166.1,273.85,90,80,3.15,RU,1603031289
6,Albany,42.6,-73.97,283.15,75,75,2.69,US,1603030649
7,Santa Maria,-29.68,-53.81,301.14,44,0,1.07,BR,1603031291
8,Poso,-1.4,120.75,301.48,70,100,1.65,ID,1603031292
9,Yangi Marg`ilon,40.43,71.72,288.15,38,0,0.1,UZ,1603031196
10,Angoram,-4.06,144.07,297.04,97,97,0.83,PG,1603031294
11,San Patricio,28.02,-97.52,299.26,88,1,3.6,US,1603031295
12,Menongue,-14.66,17.69,308.76,12,0,3.68,AO,1603031296
13,Barrow,71.29,-156.79,266.15,79,1,5.7,US,1603030917
14,Pedernales,18.04,-71.74,302.15,79,20,3.1,DO,1603031299
15,Saint George,37.1,-113.58,285.15,22,1,0.45,US,1603030953
16,Jamestown,42.1,-79.24,283.15,55,1,4.6,US,1603030918
17,Biak,-0.91,122.88,298.22,80,100,1.97,ID,1603031235
18,Mehamn,71.04,27.85,276.17,79,98,3.49,NO,1603031303
19,Ushuaia,-54.8,-68.3,280.15,75,75,12.9,AR,1603030861
20,New Norfolk,-42.78,147.06,283.71,73,97,0.45,AU,1603030996
21,Hilo,19.73,-155.09,295.15,78,40,2.1,US,1603030793
22,Road Town,18.42,-64.62,303.15,70,40,2.1,VG,1603031084
23,Kapaa,22.08,-159.32,296.15,94,90,1.5,US,1603031104
24,La Ronge,55.1,-105.28,268.15,85,90,5.7,CA,1603031048
25,Pemberton,50.32,-122.8,278.71,100,90,0.88,CA,1603031230
26,Khandyga,62.67,135.6,265.06,96,99,1.42,RU,1603031311
27,Hīt,33.64,42.83,302.74,16,0,2.05,IQ,1603031312
28,Mataura,-46.19,168.86,282.59,80,100,0.45,NZ,1603030907
29,Ca Mau,9.18,105.15,297.31,92,100,1.3,VN,1603031269
30,Khetia,21.67,74.58,301.62,71,88,1.36,IN,1603031315
31,Sibolga,1.74,98.78,299.33,75,100,1.19,ID,1603031316
32,Punta Arenas,-53.15,-70.92,279.15,81,40,7.7,CL,1603030903
33,Faanui,-16.48,-151.75,299.13,82,1,3.48,PF,1603030956
34,Dhārchula,29.85,80.53,290.03,50,6,2.01,IN,1603031320
35,George Town,5.41,100.34,302.15,83,20,0.5,MY,1603031012
36,Havelock,34.88,-76.9,294.26,82,5,5.1,US,1603031322
37,Merauke,-8.47,140.33,299.55,79,100,4.84,ID,1603030973
38,Íos,36.73,25.28,298.15,64,20,5.7,GR,1603031324
39,Rawson,-43.3,-65.1,291.69,27,0,8.19,AR,1603031325
40,Tuktoyaktuk,69.45,-133.04,262.15,92,5,1.5,CA,1603031087
41,Aklavik,68.22,-135.01,260.15,92,5,1.5,CA,1603031266
42,Sangar,63.92,127.47,263.97,96,99,3.87,RU,1603031328
43,Ponta do Sol,32.67,-17.1,295.15,88,75,11.3,PT,1603030974
44,Airai,-8.93,125.41,289.96,99,60,0.58,TL,1603031068
45,Busselton,-33.65,115.33,292.04,49,0,7.03,AU,1603030984
46,Kumul,42.8,93.45,284.29,36,100,2.73,CN,1603031332
47,Cape Town,-33.93,18.42,294.82,49,20,6.2,ZA,1603031207
48,Vaini,-21.2,-175.2,293.15,94,40,4.1,TO,1603031015
49,Saint-Augustin,51.23,-58.65,284.03,58,71,7.66,CA,1603031335
50,Upernavik,72.79,-56.15,274.17,92,63,2.89,GL,1603031112
51,Vila,42.03,-8.16,294.82,43,76,3.13,PT,1603031338
52,Nísia Floresta,-6.09,-35.21,303.15,58,75,6.7,BR,1603031339
53,Tagusao,9.19,117.81,300.66,78,83,2.12,PH,1603031340
54,Mar del Plata,-38.0,-57.56,296.15,78,100,6.2,AR,1603030645
55,Rikitea,-23.12,-134.97,296.52,81,54,9.41,PF,1603030905
56,Hasaki,35.73,140.83,287.15,87,40,5.7,JP,1603031343
57,Koslan,63.46,48.9,272.97,96,100,3.03,RU,1603031239
58,Chake Chake,-5.25,39.77,300.37,68,88,4.23,TZ,1603031345
59,Tetela de Ocampo,19.82,-97.8,290.05,63,76,0.19,MX,1603031346
60,Casino,-28.87,153.05,291.15,100,100,1.5,AU,1603031347
61,São João da Barra,-21.64,-41.05,298.15,65,75,4.1,BR,1603031147
62,Kangāvar,34.5,47.97,295.15,9,0,4.1,IR,1603031349
63,San Lorenzo,-25.33,-57.53,306.15,36,0,7.2,PY,1603031350
64,Henties Bay,-22.12,14.28,290.37,82,4,4.02,NA,1603031351
65,Broome,42.25,-75.83,281.15,52,1,2.6,US,1603031005
66,Kaitangata,-46.28,169.85,282.59,90,100,0.45,NZ,1603030942
67,Bowen,-20.02,148.23,290.15,82,0,1.0,AU,1603031355
68,Witu,-2.39,40.44,301.15,69,40,5.1,KE,1603031356
69,Ambilobe,-13.2,49.05,300.69,56,35,2.59,MG,1603031357
70,Kirakira,-10.45,161.92,299.56,81,78,3.29,SB,1603031144
71,Tiksi,71.69,128.87,266.13,96,100,7.78,RU,1603031184
72,Nikolayevka,53.13,47.2,287.6,64,100,7.12,RU,1603031360
73,Bredasdorp,-34.53,20.04,294.15,52,57,6.2,ZA,1603030943
74,Turukhansk,65.82,87.98,271.14,98,100,2.67,RU,1603031362
75,Ambulu,-8.35,113.61,297.85,89,40,1.85,ID,1603031363
76,Isangel,-19.55,169.27,294.66,72,7,2.74,VU,1603031158
77,Hong Kong,22.29,114.16,297.59,81,47,0.89,HK,1603030806
78,Qaanaaq,77.48,-69.36,274.65,83,93,3.36,GL,1603030921
79,Kailua,21.4,-157.74,298.15,88,1,3.09,US,1603031367
80,Provideniya,64.38,-173.3,274.4,90,75,1.9,RU,1603030912
81,Derzhavīnsk,51.1,66.32,278.62,57,0,2.51,KZ,1603031369
82,Bethel,41.37,-73.41,284.26,75,1,1.5,US,1603031114
83,Khatanga,71.97,102.5,259.71,86,0,3.71,RU,1603030901
84,Saint Paul Harbor,57.79,-152.41,277.15,86,90,2.6,US,1603031064
85,Meulaboh,4.14,96.13,299.25,79,100,1.31,ID,1603031002
86,Portland,45.52,-122.68,287.15,62,90,2.16,US,1603031247
87,Hobart,-42.88,147.33,284.15,71,90,3.1,AU,1603030659
88,Aratoca,6.69,-73.02,292.15,100,75,5.1,CO,1603031377
89,Mikuni,36.22,136.15,286.15,82,75,2.6,JP,1603031378
90,Bon Air,37.52,-77.56,285.93,85,78,1.72,US,1603031379
91,Altus,34.64,-99.33,290.15,88,1,2.6,US,1603031316
92,Kalakamati,-20.59,27.31,309.15,11,20,5.1,BW,1603031381
93,Navalcarnero,40.29,-4.01,294.26,28,100,1.0,ES,1603031382
94,Willmar,45.12,-95.04,270.15,73,90,4.1,US,1603031384
95,Carauari,-4.88,-66.9,299.1,85,100,0.54,BR,1603031385
96,Shiyan,32.65,110.78,286.94,66,2,1.28,CN,1603031386
97,Atuona,-9.8,-139.03,298.21,79,43,8.48,PF,1603031003
98,Puerto Princesa City,9.74,118.74,300.08,82,100,2.56,PH,1603031388
99,Kavieng,-2.57,150.8,301.25,75,2,4.75,PG,1603031389
100,Ostrovnoy,68.05,39.51,274.24,87,68,5.88,RU,1603030866
101,Ilulissat,69.22,-51.1,276.15,69,100,2.6,GL,1603030873
102,Itoman,26.12,127.67,298.15,83,40,6.2,JP,1603031392
103,Avarua,-21.21,-159.78,295.15,83,75,3.1,CK,1603030934
104,Acapulco de Juárez,16.86,-99.89,300.15,88,40,1.53,MX,1603030866
105,Murray Bridge,-35.12,139.27,281.48,85,0,1.14,AU,1603031395
106,Longyearbyen,78.22,15.64,271.15,74,40,5.7,SJ,1603030899
107,Bambous Virieux,-20.34,57.76,298.15,65,40,4.1,MU,1603031021
108,Butaritari,3.07,172.79,300.47,76,65,8.62,KI,1603030948
109,Ixtapa,20.7,-105.2,301.48,88,75,2.1,MX,1603031400
110,Ranfurly,-45.13,170.1,278.15,95,100,0.72,NZ,1603031401
111,Boende,-0.22,20.87,302.45,67,98,1.14,CD,1603031402
112,Port Alfred,-33.59,26.89,292.76,67,100,8.51,ZA,1603030946
113,Katsuura,35.13,140.3,290.15,72,75,5.1,JP,1603030919
114,Pevek,69.7,170.31,268.76,94,0,7.75,RU,1603030898
115,Hūn,29.13,15.95,303.43,32,100,5.86,LY,1603031406
116,Puerto Ayora,-0.74,-90.35,294.26,93,100,3.58,EC,1603030922
117,Marzuq,14.4,46.47,300.65,15,0,5.37,YE,1603031194
118,Dikson,73.51,80.55,268.25,91,3,12.22,RU,1603030957
119,Pangnirtung,66.15,-65.71,274.39,87,100,5.35,CA,1603031410
120,Saiki,32.95,131.9,289.15,59,24,2.1,JP,1603031411
121,Havre-St-Pierre,50.23,-63.6,280.15,75,1,9.3,CA,1603030929
122,Micheweni,-4.97,39.83,299.87,72,43,4.4,TZ,1603031414
123,Athani,16.73,75.07,298.09,76,100,3.17,IN,1603031415
124,Kisangani,0.52,25.2,300.01,73,99,0.49,CD,1603031416
125,Lagoa,39.05,-27.98,289.91,61,56,6.78,PT,1603031417
126,Torata,-17.08,-70.84,294.29,24,0,4.36,PE,1603031418
127,Bluff,-46.6,168.33,282.59,80,100,0.45,NZ,1603031072
128,Tabas,33.6,56.92,297.15,6,0,2.1,IR,1603031420
129,Nabire,-3.37,135.48,297.97,86,100,1.56,ID,1603031421
130,Tairua,-37.02,175.85,287.04,80,85,0.98,NZ,1603031423
131,Abu Samrah,35.3,37.18,295.09,24,0,1.86,SY,1603031424
132,Ocós,14.51,-92.19,299.15,100,40,1.0,GT,1603031425
133,Karratha,-20.74,116.85,294.14,80,0,6.14,AU,1603031426
134,Pitkyaranta,61.57,31.48,276.37,96,100,6.9,RU,1603031427
135,Lebu,-37.62,-73.65,285.78,64,0,2.6,CL,1603031429
136,Asău,46.43,26.4,284.26,71,35,1.53,RO,1603031430
137,Geraldton,-28.77,114.6,293.15,82,2,4.6,AU,1603030928
138,Botro,7.85,-5.31,301.15,74,75,3.1,CI,1603031432
139,Labuhan,-6.88,112.21,299.96,75,30,3.43,ID,1603031276
140,Bakel,14.9,-12.46,314.12,12,0,6.06,SN,1603031434
141,Monduli,-3.3,36.45,301.15,30,75,4.1,TZ,1603031435
142,Eyl,7.98,49.82,302.68,59,33,6.07,SO,1603031436
143,Ribeira Grande,38.52,-28.7,292.15,52,20,6.2,PT,1603030893
144,Lashio,22.93,97.75,292.93,97,71,0.78,MM,1603031438
145,Umm Kaddadah,13.6,26.69,309.86,9,19,6.2,SD,1603031056
146,Hermanus,-34.42,19.23,293.15,60,61,2.24,ZA,1603030939
147,Yumen,40.28,97.2,279.87,45,36,4.35,CN,1603031442
148,Najrān,17.49,44.13,300.15,15,0,4.1,SA,1603031443
149,Sibu,2.3,111.82,297.15,88,40,2.6,MY,1603031306
150,Ilesha,7.14,5.26,304.72,50,19,1.27,NG,1603031445
151,Panama City,8.99,-79.52,300.15,88,75,2.6,PA,1603031403
152,Avera,33.19,-82.53,288.15,67,90,3.1,US,1603031447
153,Tanout,14.97,8.89,310.68,9,55,5.23,NE,1603031448
154,Waddān,29.16,16.14,303.91,29,100,5.09,LY,1603031449
155,Iquique,-20.22,-70.14,291.15,63,90,4.6,CL,1603031317
156,Sierra Vista,31.55,-110.3,290.15,25,1,3.1,US,1603031451
157,Seymour,38.96,-85.89,284.26,83,100,0.89,US,1603031267
158,Chapais,49.78,-74.85,278.15,86,90,8.2,CA,1603031453
159,Berlevåg,70.86,29.09,275.91,80,45,2.03,NO,1603030966
160,Danilovka,50.36,44.12,290.99,57,85,3.94,RU,1603031456
161,La Maddalena,41.21,9.41,292.15,67,90,4.1,IT,1603031457
162,Tieling,42.29,123.84,281.53,51,8,2.85,CN,1603031458
163,Castro,-24.79,-50.01,293.27,69,100,2.91,BR,1603030913
164,Souillac,-20.52,57.52,298.15,65,40,4.1,MU,1603031148
165,Port Lincoln,-34.73,135.87,284.57,77,0,4.53,AU,1603031461
166,Ngunguru,-35.62,174.5,284.26,91,38,0.45,NZ,1603031462
167,Quryq,43.2,51.65,291.21,30,0,3.98,KZ,1603031463
168,Plátanos,37.67,21.62,295.15,53,20,3.6,GR,1603031464
169,Juruti,-2.15,-56.09,308.43,38,48,2.69,BR,1603031466
170,Sterlibashevo,53.44,55.26,280.61,55,100,7.02,RU,1603031467
171,Mananara,-16.17,49.77,296.31,78,0,2.86,MG,1603031468
172,Yellowknife,62.46,-114.35,269.15,85,90,3.1,CA,1603030949
173,Kieta,-6.22,155.63,299.41,77,100,0.77,PG,1603030944
174,Ribeira Brava,32.65,-17.07,295.15,88,75,11.3,PT,1603031471
175,Sisimiut,66.94,-53.67,278.87,64,100,8.4,GL,1603031439
176,Linxia Chengguanzhen,35.6,103.21,278.97,63,0,1.04,CN,1603031473
177,Te Anau,-45.42,167.72,280.34,90,100,0.72,NZ,1603030972
178,Aleysk,52.49,82.78,275.26,79,0,4.09,RU,1603031475
179,Kutum,14.2,24.67,305.74,11,0,6.97,SD,1603031206
180,Yarmouth,41.71,-70.23,288.15,50,1,3.1,US,1603031477
181,Leningradskiy,69.38,178.42,267.24,87,0,3.21,RU,1603031121
182,Barra de Tecoanapa,16.52,-98.75,301.04,70,74,1.44,MX,1603031480
183,Arraial do Cabo,-22.97,-42.03,298.15,61,40,5.7,BR,1603031220
184,Abakaliki,6.32,8.12,305.15,62,75,1.5,NG,1603031482
185,Rock Sound,24.9,-76.2,301.46,75,89,6.53,BS,1603031483
186,Yakymivka,46.69,35.15,290.59,60,85,1.91,UA,1603031484
187,Vestmannaeyjar,63.44,-20.27,280.15,87,90,6.2,IS,1603031249
188,Los Llanos de Aridane,28.66,-17.92,299.15,65,20,8.7,ES,1603031486
189,Maceió,-9.67,-35.74,302.15,58,75,6.2,BR,1603031487
190,La Ligua,-32.45,-71.23,284.15,93,90,2.6,CL,1603031488
191,Grand Island,40.92,-98.34,275.37,80,90,5.7,US,1603031342
192,Nome,64.5,-165.41,277.15,86,40,5.1,US,1603031490
193,Adrar,20.5,-10.07,308.66,15,0,3.48,MR,1603031491
194,Mahébourg,-20.41,57.7,298.15,65,40,4.1,MU,1603031100
195,Topolobampo,25.6,-109.05,299.26,78,5,1.13,MX,1603031494
196,Tuatapere,-46.13,167.68,282.59,81,100,0.45,NZ,1603031495
197,Nishihara,26.18,127.76,298.15,88,20,3.1,JP,1603031496
198,Waipawa,-41.41,175.52,286.15,87,100,8.7,NZ,1603031497
199,Hohhot,40.81,111.65,277.15,38,0,3.0,CN,1603031498
200,Saint-Philippe,-21.36,55.77,298.15,69,33,7.2,RE,1603031079
201,Sungai Penuh,-2.08,101.38,292.19,94,100,0.4,ID,1603031500
202,Chokurdakh,70.63,147.92,266.57,98,93,3.7,RU,1603030997
203,Namatanai,-3.67,152.43,299.86,79,100,2.87,PG,1603031502
204,Port Elizabeth,-33.92,25.57,292.15,68,66,8.7,ZA,1603030977
205,Carnarvon,-24.87,113.63,294.15,83,90,8.2,AU,1603031091
206,Kannur,11.87,75.36,300.15,88,75,0.5,IN,1603031505
207,Katherine,-14.47,132.27,302.15,45,75,0.5,AU,1603030923
208,Changtu,42.78,124.1,280.48,55,8,2.99,CN,1603031508
209,Fort Myers Beach,26.45,-81.95,301.48,74,1,4.1,US,1603031509
210,Cabo San Lucas,22.89,-109.91,299.82,73,5,2.6,MX,1603030953
211,Bengkulu,-3.8,102.27,298.38,85,89,1.34,ID,1603031115
212,Bandar-e Anzali,37.47,49.46,294.15,77,40,2.06,IR,1603031512
213,Lavrentiya,65.58,-171.0,275.08,92,99,0.47,RU,1603031513
214,Tazovsky,67.47,78.7,266.76,95,99,7.52,RU,1603031514
215,Yārāda,17.65,83.27,303.15,79,75,3.1,IN,1603031515
216,Dingle,11.0,122.67,298.14,90,100,2.48,PH,1603031167
217,Kirkwall,58.98,-2.96,280.15,81,40,1.0,GB,1603031517
218,Nadym,65.53,72.52,269.4,96,54,6.75,RU,1603031518
219,Bahía Blanca,-38.72,-62.27,299.52,19,39,3.07,AR,1603031519
220,Severo-Kuril'sk,50.68,156.12,280.64,82,50,4.72,RU,1603030937
221,Nyuksenitsa,60.41,44.24,275.19,94,100,3.83,RU,1603031522
222,Khedbrahma,24.03,73.05,303.27,58,36,0.21,IN,1603031523
223,Amahai,-3.33,128.92,300.37,90,91,0.84,ID,1603031524
224,Cherskiy,68.75,161.3,266.33,92,62,4.12,RU,1603031186
225,Beian,63.66,9.57,278.15,80,75,9.23,NO,1603031526
226,Laas,46.62,10.7,286.48,37,5,2.6,IT,1603031054
227,Vila Velha,-20.33,-40.29,298.15,78,75,6.2,BR,1603030975
228,Chui,-33.7,-53.46,297.09,56,0,2.98,UY,1603031529
229,Hay River,60.82,-115.8,269.15,79,90,3.6,CA,1603030961
230,Nemuro,43.32,145.57,286.52,82,0,7.17,JP,1603031531
231,Guerrero Negro,27.98,-114.06,293.52,82,2,2.84,MX,1603031097
232,Il'inskoye-Khovanskoye,56.97,39.77,278.15,100,90,2.0,RU,1603031533
233,Vardø,70.37,31.11,271.15,86,40,3.6,NO,1603030958
234,Ancud,-41.87,-73.82,286.48,71,40,9.3,CL,1603031535
235,Wuwei,37.93,102.64,283.71,43,0,2.27,CN,1603031536
236,Mattru,7.62,-11.83,302.89,74,85,1.7,SL,1603031537
237,Wanning,18.8,110.4,298.84,87,100,8.65,CN,1603031539
238,Fairbanks,64.84,-147.72,266.48,66,75,0.76,US,1603031400
239,San Quintín,30.48,-115.95,293.18,75,24,3.06,MX,1603030998
240,Pisco,-13.7,-76.22,290.37,88,90,2.6,PE,1603031542
241,Tagbina,8.45,126.17,297.12,94,100,1.24,PH,1603031543
242,San Cristobal,7.77,-72.22,304.15,43,40,7.2,VE,1603031120
243,Yantzaza,-3.83,-78.76,302.61,42,44,0.74,EC,1603031545
244,Strezhevoy,60.73,77.59,272.15,74,75,5.0,RU,1603031546
245,Tasiilaq,65.61,-37.64,274.15,74,40,8.7,GL,1603031135
246,Tecpan,14.76,-90.99,293.71,88,75,5.1,GT,1603031548
247,Stavelot,50.39,5.93,284.26,81,96,2.1,BE,1603031549
248,Alofi,-19.06,-169.92,298.15,94,78,3.6,NU,1603031550
249,Premià de Mar,41.49,2.37,292.04,75,10,1.34,ES,1603031551
250,Tapiramutá,-11.85,-40.79,299.41,56,72,4.44,BR,1603031553
251,Kawalu,-7.38,108.21,295.98,89,99,0.91,ID,1603031554
252,Ha Tinh,18.33,105.9,295.54,95,100,4.84,VN,1603031555
253,Klaksvík,62.23,-6.59,277.15,93,100,4.1,FO,1603031051
254,Xiaolingwei,32.03,118.85,290.93,82,100,1.0,CN,1603031557
255,Rio Grande,-32.03,-52.1,299.82,62,0,1.34,BR,1603031558
256,Inírida,3.87,-67.92,303.97,64,49,0.89,CO,1603031559
257,Omboué,-1.57,9.26,298.27,89,100,3.8,GA,1603031560
258,Devils Lake,48.11,-98.87,270.15,58,90,7.2,US,1603031562
259,Kysyl-Syr,63.9,122.76,261.19,95,88,1.81,RU,1603031563
260,General Roca,-39.03,-67.58,292.15,32,0,5.1,AR,1603031564
261,Iqaluit,63.75,-68.51,274.15,86,90,6.7,CA,1603031000
262,Zanjān,36.67,48.48,294.15,11,0,2.1,IR,1603031566
263,Port Hardy,50.7,-127.42,281.15,93,90,3.6,CA,1603031567
264,Kalangala,-0.31,32.23,295.15,83,20,1.5,UG,1603031568
265,Fairhope,30.52,-87.9,292.59,88,90,3.6,US,1603031304
266,Santa Cruz del Sur,20.71,-78.0,302.17,74,96,8.11,CU,1603031570
267,Balyqshy,47.07,51.87,289.15,29,0,5.0,KZ,1603031571
268,Shaowu,27.34,117.48,289.05,88,98,0.84,CN,1603031419
269,Monroe,43.15,-77.68,286.48,41,90,6.2,US,1603031573
270,Quatre Cocos,-20.21,57.76,298.15,65,40,4.1,MU,1603031574
271,Makkah al Mukarramah,21.43,39.83,303.81,26,0,3.82,SA,1603031427
272,Rakkestad,59.43,11.35,282.59,41,0,2.68,NO,1603031576
273,Santiago del Estero,-27.8,-64.26,307.35,34,0,7.8,AR,1603030981
274,Emerald,-23.53,148.17,295.15,60,0,4.1,AU,1603031579
275,Rantauprapat,2.1,99.83,298.26,78,100,1.01,ID,1603031339
276,Ahipara,-35.17,173.17,286.06,91,93,2.73,NZ,1603031040
277,Ovsyanka,55.96,92.55,276.15,69,40,9.0,RU,1603031582
278,Pereslavl'-Zalesskiy,56.74,38.86,278.24,90,100,7.17,RU,1603031583
279,Aykhal,66.0,111.5,261.15,92,75,2.0,RU,1603031018
280,Beloha,-25.17,45.05,296.3,59,0,8.25,MG,1603031190
281,Kiryat Gat,31.61,34.76,300.93,62,0,5.15,IL,1603031523
282,Soyo,-6.13,12.37,301.15,78,75,3.6,AO,1603031587
283,Ambon City,-3.7,128.18,297.15,94,40,4.1,ID,1603031588
284,Cayenne,4.93,-52.33,305.15,55,40,4.1,GF,1603031110
285,Itarema,-2.92,-39.92,304.85,44,89,7.69,BR,1603031590
286,Talnakh,69.49,88.4,267.15,92,75,7.0,RU,1603031004
287,Naze,28.37,129.48,297.15,94,90,10.8,JP,1603031592
288,Faya,18.39,42.45,298.15,12,20,2.6,SA,1603031090
289,Taldan,53.67,124.8,267.3,98,76,0.31,RU,1603031594
290,Thompson,55.74,-97.86,267.15,92,75,1.0,CA,1603031098
291,Fortuna,40.6,-124.16,282.15,100,40,3.6,US,1603031101
292,La Paz,-16.5,-68.15,283.15,57,75,2.1,BO,1603031154
293,Hithadhoo,-0.6,73.08,301.94,77,100,7.64,MV,1603031445
294,Petropavlovsk-Kamchatskiy,53.05,158.65,277.15,100,75,2.5,RU,1603031600
295,Kaeo,-35.1,173.78,284.26,91,30,0.89,NZ,1603031601
296,Koumac,-20.57,164.28,293.75,76,1,2.41,NC,1603031602
297,Port Augusta,-32.5,137.77,286.15,71,0,4.1,AU,1603031603
298,Lüderitz,-26.65,15.16,296.73,41,0,11.58,NA,1603031058
299,Esperance,-33.87,121.9,286.15,82,91,4.6,AU,1603031605
300,Bose,45.46,8.01,288.71,74,0,0.89,IT,1603031606
301,Belaya Gora,68.53,146.42,267.22,98,100,4.8,RU,1603031607
302,Eséka,3.65,10.77,301.12,74,100,1.97,CM,1603031608
303,Río Gallegos,-51.62,-69.22,283.15,57,75,9.3,AR,1603031558
304,Makakilo City,21.35,-158.09,298.15,88,1,3.11,US,1603031611
305,Port Hawkesbury,45.62,-61.35,285.93,62,1,4.1,CA,1603031612
306,Mount Gambier,-37.83,140.77,281.15,93,40,2.6,AU,1603031133
307,Prince Rupert,54.32,-130.32,278.15,100,90,2.1,CA,1603031495
308,Jacmel,18.23,-72.53,303.15,66,20,6.2,HT,1603031615
309,Simpang,-1.27,104.08,297.73,83,57,0.88,ID,1603031616
310,Lishu,43.3,124.33,280.14,56,0,4.02,CN,1603031617
311,Impfondo,1.64,18.07,300.51,79,100,0.72,CG,1603031618
312,Taltal,-25.4,-70.48,290.48,61,29,2.58,CL,1603031619
313,Torbay,47.67,-52.73,286.48,93,75,6.2,CA,1603031067
314,Prieska,-29.66,22.75,307.59,10,40,9.19,ZA,1603031621
315,Porto-Novo,6.5,2.6,303.15,74,40,5.7,BJ,1603031327
316,Krasnosel'kup,65.7,82.47,265.7,96,97,9.64,RU,1603031623
317,Tual,-5.67,132.75,300.53,83,97,6.7,ID,1603031624
318,Sitka,57.05,-135.33,279.15,60,90,1.5,US,1603031471
319,Nizwá,22.93,57.53,299.47,26,0,4.88,OM,1603031627
320,Cidreira,-30.18,-50.21,294.92,68,91,7.12,BR,1603031605
321,Tegul'det,57.31,88.17,273.28,90,97,6.11,RU,1603031629
322,Tongchuanshi,35.08,109.09,285.91,46,94,2.44,CN,1603031630
323,Yar-Sale,66.83,70.83,267.82,95,6,4.0,RU,1603031086
324,Tura,25.52,90.22,297.09,91,0,1.1,IN,1603031134
325,Ferkessédougou,9.6,-5.2,304.54,54,99,1.92,CI,1603031633
326,Phuthaditjhaba,-28.52,28.82,302.68,13,40,3.94,ZA,1603031634
327,Mitzic,0.78,11.55,299.76,71,98,1.63,GA,1603031635
328,Loreto,22.27,-101.97,290.5,59,32,1.46,MX,1603031636
329,Zhengjiatun,43.51,123.51,280.87,54,0,4.71,CN,1603031637
330,Kruisfontein,-34.0,24.73,293.15,57,65,4.47,ZA,1603031081
331,Tolaga Bay,-38.37,178.3,284.78,68,95,1.44,NZ,1603031639
332,Santa Fe,-31.63,-60.7,308.15,40,0,3.58,AR,1603031640
333,Chernyshevskiy,63.01,112.47,264.47,97,12,1.91,RU,1603031641
334,Xichang,27.9,102.26,287.8,68,100,1.29,CN,1603031642
335,Pringsewu,-5.36,104.97,297.15,92,17,1.68,ID,1603031360
336,Kimbe,-5.55,150.14,297.81,90,100,0.1,PG,1603031645
337,Pudozh,61.81,36.53,273.97,95,100,2.29,RU,1603031587
338,Djibouti,11.5,42.5,304.15,58,1,4.1,DJ,1603031647
339,Khasan,42.43,130.64,282.69,51,0,3.83,RU,1603031181
340,San Juan,-31.54,-68.54,303.8,22,0,8.48,AR,1603031393
341,Alugan,12.22,125.48,300.75,83,100,2.96,PH,1603031650
342,Mezen',65.85,44.24,274.44,96,89,3.17,RU,1603031651
343,Benemérito de las Américas,16.52,-90.64,299.33,84,75,0.47,MX,1603031652
344,Shubarshi,48.59,57.19,289.06,39,0,3.94,KZ,1603031653
345,Pastavy,55.12,26.83,279.18,89,100,7.76,BY,1603031654
346,Baykit,61.67,96.37,271.4,93,87,3.86,RU,1603031529
347,Valdivia,-39.81,-73.25,287.15,67,75,6.2,CL,1603031516
348,Kabansk,52.05,106.65,274.15,74,47,3.0,RU,1603031657
349,Sinnamary,5.38,-52.95,303.82,61,57,4.2,GF,1603031658
350,San,13.3,-4.9,310.2,24,69,1.24,ML,1603031171
351,Saskylakh,71.92,114.08,265.51,97,95,1.88,RU,1603031660
352,Vilhena,-12.74,-60.15,309.86,31,71,0.53,BR,1603031218
353,Domoni,-12.26,44.53,299.01,73,44,2.17,KM,1603031663
354,Lorengau,-2.02,147.27,300.99,80,3,3.83,PG,1603031664
355,Tucumã,-0.18,-50.05,306.59,45,38,3.39,BR,1603031503
356,Hobyo,5.35,48.53,300.06,79,14,7.82,SO,1603031666
357,Leh,34.17,77.58,278.48,38,0,1.46,IN,1603031667
358,Severomuysk,56.15,113.43,268.38,99,95,1.21,RU,1603031668
359,Toppenish,46.38,-120.31,282.59,75,1,3.1,US,1603031669
360,Nouna,12.73,-3.87,309.8,28,14,2.16,BF,1603031670
361,Garoua,9.3,13.4,308.15,50,20,2.1,CM,1603031671
362,Presidencia Roque Sáenz Peña,-26.79,-60.44,307.38,38,0,4.2,AR,1603031672
363,Buraidah,26.33,43.98,304.15,15,0,2.6,SA,1603031673
364,Mahabalipuram,12.63,80.17,299.15,100,90,1.0,IN,1603031675
365,Korla,41.76,86.15,283.71,72,0,0.89,CN,1603031676
366,Zyryanskoye,56.83,86.63,273.67,88,99,7.21,RU,1603031677
367,Slave Lake,55.28,-114.77,265.15,78,90,2.1,CA,1603031678
368,Kasongo-Lunda,-6.47,16.82,301.26,69,83,1.08,CD,1603031679
369,Weyburn,49.67,-103.85,268.15,61,0,8.05,CA,1603031680
370,Coos Bay,43.37,-124.22,283.71,100,90,1.5,US,1603031681
371,Dunedin,-45.87,170.5,282.59,89,100,2.27,NZ,1603031238
372,Changqing,36.56,116.73,289.82,49,88,3.06,CN,1603031683
373,Rāmhormoz,31.28,49.6,307.15,9,0,3.1,IR,1603031684
374,Matara,5.95,80.54,299.41,85,50,4.87,LK,1603031685
375,Vallenar,-28.57,-70.76,299.4,29,0,3.48,CL,1603031686
376,Abhā,18.22,42.51,298.15,12,20,2.6,SA,1603031687
377,Saint Anthony,45.02,-93.22,272.59,58,1,6.2,US,1603031152
378,Mishelevka,52.86,103.17,278.42,78,82,0.39,RU,1603031689
379,Rabaul,-4.2,152.17,300.05,80,99,0.21,PG,1603031691
380,Gladstone,-23.85,151.25,295.15,73,11,2.6,AU,1603031473
381,Kahului,20.89,-156.47,298.15,78,40,2.1,US,1603031139
382,Constitución,-35.33,-72.42,288.7,58,0,6.46,CL,1603031694
383,Snyder,32.72,-100.92,288.15,100,1,3.1,US,1603031695
384,Mwingi,-0.93,38.06,300.51,35,38,4.33,KE,1603031696
385,Chalchihuites,23.48,-103.88,290.62,43,0,0.58,MX,1603031697
386,Hualmay,-11.1,-77.61,292.62,68,73,3.38,PE,1603031698
387,Tommot,58.96,126.29,262.02,92,27,1.04,RU,1603031699
388,Sæby,57.33,10.52,283.15,59,41,1.34,DK,1603031700
389,Jerantut,3.94,102.36,298.76,77,100,0.12,MY,1603031537
390,Russell,32.35,-85.2,289.82,63,1,2.1,US,1603031703
391,Nikolskoye,59.7,30.79,275.37,93,90,5.0,RU,1603031704
392,Ayan,56.45,138.17,270.86,84,99,9.04,RU,1603031705
393,Luleå,65.58,22.15,272.15,92,90,6.7,SE,1603031706
394,Ust'-Ilimsk,58.0,102.66,278.89,84,100,4.15,RU,1603031707
395,Daura,11.55,11.41,309.74,15,0,3.71,NG,1603031708
396,Amga,60.9,131.96,260.6,95,47,1.44,RU,1603031709
397,Clyde River,70.47,-68.59,269.15,79,1,1.0,CA,1603031710
398,Valleyview,55.07,-117.29,263.06,87,0,1.27,CA,1603031711
399,Evensk,61.95,159.23,274.43,86,100,1.44,RU,1603031138
400,Ko Samui,9.54,99.94,300.15,83,20,6.34,TH,1603031713
401,North Platte,41.12,-100.77,274.15,74,90,4.1,US,1603031715
402,Bairiki Village,1.33,172.98,300.15,74,20,6.2,KI,1603031716
403,Iporá,-16.44,-51.12,309.12,27,47,2.13,BR,1603031717
404,Yuzhnyy,53.25,83.69,274.15,59,45,6.0,RU,1603031718
405,Jumla,29.27,82.18,285.4,66,57,1.3,NP,1603031719
406,Manche,49.0,-1.17,287.15,58,75,2.1,FR,1603031720
407,Touros,-5.2,-35.46,303.15,58,75,6.7,BR,1603031721
408,Lexington Park,38.27,-76.45,290.15,58,40,5.1,US,1603031722
409,The Pas,53.83,-101.25,270.15,92,90,6.2,CA,1603031723
410,Vredefort,-27.01,27.36,305.46,13,75,4.56,ZA,1603031724
411,Viamão,-30.08,-51.02,300.93,44,99,3.1,BR,1603031645
412,Bukachacha,52.98,116.92,271.97,95,51,0.8,RU,1603031726
413,Nampula,-15.12,39.27,305.93,24,4,2.6,MZ,1603031728
414,São Félix do Xingu,-6.64,-51.99,311.15,26,100,2.71,BR,1603031729
415,Hargeisa,9.56,44.06,297.26,40,0,8.48,SO,1603031730
416,Coihueco,-36.62,-71.83,285.15,81,40,3.1,CL,1603031731
417,Zhigansk,66.77,123.37,262.28,95,92,2.09,RU,1603031732
418,Lokosovo,61.13,74.82,271.67,93,93,6.28,RU,1603031733
419,Suifenhe,44.4,131.17,272.83,93,13,1.31,CN,1603031734
420,Aginskoye,51.1,114.53,275.47,82,0,3.92,RU,1603031735
421,Puerto Escondido,15.85,-97.07,298.15,83,20,2.6,MX,1603031736
422,Villazón,-22.09,-65.59,289.1,30,0,1.1,BO,1603031737
423,Port Macquarie,-31.43,152.92,291.15,100,90,3.1,AU,1603031699
424,Pacific Grove,36.62,-121.92,286.48,66,1,0.77,US,1603031626
425,Wajima,37.4,136.9,290.41,58,52,2.89,JP,1603031740
426,Buala,-8.14,159.59,300.3,77,99,0.75,SB,1603031170
427,Radcliff,37.84,-85.95,283.71,100,90,2.6,US,1603031743
428,Redcliffe,-27.23,153.1,294.82,73,75,6.2,AU,1603031744
429,Valladolid,41.58,-4.67,293.15,37,19,1.5,ES,1603031745
430,Atar,20.52,-13.05,310.42,16,0,3.37,MR,1603031746
431,Vostok,46.49,135.88,268.37,95,1,1.12,RU,1603031747
432,Newala,-10.94,39.28,300.29,45,14,5.59,TZ,1603031748
433,Saldanha,-33.01,17.94,295.15,43,50,6.2,ZA,1603031226
434,Kiunga,-6.12,141.29,296.39,98,100,0.94,PG,1603031750
435,Capaccio Paestum,40.42,15.08,293.15,56,20,1.0,IT,1603031751
436,Lakes Entrance,-37.88,147.98,283.15,88,98,3.77,AU,1603031752
437,Shitanjing,39.23,106.34,280.98,46,0,0.99,CN,1603031753
438,Talavera,15.62,120.93,297.15,94,75,1.5,PH,1603031754
439,Kavaratti,10.57,72.64,300.71,77,1,4.58,IN,1603031755
440,Issia,6.49,-6.59,302.83,68,65,1.77,CI,1603031756
441,Zyryanka,65.75,150.85,266.08,93,80,0.98,RU,1603031758
442,Marathon,44.9,-89.77,274.15,86,1,4.6,US,1603031759
443,Harper,4.38,-7.72,300.28,81,54,4.03,LR,1603031162
444,Colac,-38.33,143.58,281.48,97,7,1.92,AU,1603031169
445,Montana,43.41,23.23,287.04,71,14,4.63,BG,1603031762
446,Keighley,53.87,-1.91,282.59,81,75,1.5,GB,1603031763
447,Aksu,41.12,80.26,285.28,39,0,0.85,CN,1603031764
448,Bathsheba,13.22,-59.52,303.15,74,40,5.1,BB,1603031765
449,Tuy Hoa,13.08,109.3,298.47,87,100,1.93,VN,1603031766
450,Praia da Vitória,38.73,-27.07,291.48,77,40,6.63,PT,1603031767
451,Mokhsogollokh,61.47,128.92,261.86,96,58,2.09,RU,1603031768
452,Toguchin,55.24,84.39,273.58,90,88,6.49,RU,1603031769
453,Aswān,24.09,32.91,309.42,10,0,3.92,EG,1603031622
454,Nelson Bay,-32.72,152.15,290.37,100,90,6.7,AU,1603031772
455,Thinadhoo,0.53,72.93,302.04,76,74,7.57,MV,1603031773
456,Ballybofey,54.8,-7.78,287.15,71,33,4.6,IE,1603031774
457,Padang,-0.95,100.35,299.59,75,52,1.41,ID,1603031605
458,Las Varas,21.17,-105.17,302.04,100,90,1.52,MX,1603031776
459,Mujiayingzi,42.12,118.78,280.96,53,0,2.86,CN,1603031777
460,Feni,23.02,91.41,298.76,88,98,0.84,BD,1603031778
461,Hofn,64.25,-15.21,279.15,87,90,1.0,IS,1603031779
462,Olafsvik,64.89,-23.71,277.26,76,85,8.29,IS,1603031268
463,Caravelas,-17.71,-39.25,299.22,67,41,4.72,BR,1603031256
464,Santa Ana,33.75,-117.87,293.15,88,90,0.61,US,1603031705
465,Mailsi,29.8,72.18,299.16,16,0,1.67,PK,1603031784
466,Gejiu,23.31,103.16,284.64,100,89,1.54,CN,1603031785
467,Guaçuí,-20.78,-41.68,294.3,71,89,2.91,BR,1603031786
468,Sioux Lookout,50.1,-91.92,271.15,74,90,3.1,CA,1603031094
469,Yaan,7.38,8.57,301.5,71,87,2.47,NG,1603031215
470,Burlington,39.88,-74.64,288.15,50,1,1.5,US,1603031669
471,Benguela,-12.58,13.41,301.15,69,40,4.1,AO,1603031790
472,Ginda,30.69,78.49,300.15,57,49,1.95,IN,1603031791
473,Sabha,27.04,14.43,309.45,9,89,4.98,LY,1603031792
474,Charters Towers,-20.1,146.27,291.58,85,0,3.63,AU,1603031793
475,Dickinson,29.46,-95.05,300.37,83,1,2.1,US,1603031794
476,Kohima,25.67,94.12,289.97,99,7,1.02,IN,1603031795
477,Shingū,33.73,135.98,287.7,81,51,2.53,JP,1603031198
478,Mumbai,19.01,72.85,301.15,88,20,3.6,IN,1603031681
479,Lima,-12.04,-77.03,290.15,82,90,2.1,PE,1603031703
480,Kodinsk,58.69,99.18,278.44,89,99,5.45,RU,1603031527
481,Salalah,17.02,54.09,303.15,51,0,2.6,OM,1603031801
482,Luocheng,29.38,104.03,287.67,85,100,1.34,CN,1603031802
483,Mānsa,29.98,75.38,297.42,19,0,2.28,IN,1603031803
484,Stokmarknes,68.56,14.91,278.15,60,20,2.6,NO,1603031804
485,Ust'-Ishim,57.69,71.17,272.39,95,40,2.99,RU,1603031805
486,Khovd,48.01,91.64,277.3,60,0,4.03,MN,1603031806
487,Dauphin,51.15,-100.05,269.15,73,90,9.3,CA,1603031559
488,Korem,12.51,39.52,288.95,58,39,2.64,ET,1603031808
489,Beringovskiy,63.05,179.32,274.84,83,69,2.63,RU,1603031809
490,Loandjili,-4.76,11.86,302.15,74,40,5.7,CG,1603031810
491,Flinders,-34.58,150.86,288.71,84,56,1.79,AU,1603031811
492,Port Moresby,-9.44,147.18,299.15,88,75,5.1,PG,1603031812
493,Ābādān,30.34,48.3,308.15,13,0,3.56,IR,1603031814
494,Aden,12.78,45.04,302.74,62,0,1.03,YE,1603031598
495,Muros,42.78,-9.06,294.26,68,98,2.24,ES,1603031816
496,Simplício Mendes,-7.85,-41.91,309.97,19,75,3.92,BR,1603031817
497,Gamba,-2.65,10.0,299.16,83,100,4.42,GA,1603031818
498,Sahuaripa,29.05,-109.23,299.34,46,1,0.74,MX,1603031819
499,Codrington,-38.27,141.97,280.75,94,5,3.19,AU,1603031820
500,Bubaque,11.28,-15.83,301.35,80,3,3.09,GW,1603031821
501,Lufilufi,-13.87,-171.6,298.15,94,40,1.5,WS,1603031822
502,São Miguel do Tapuio,-5.5,-41.32,311.73,19,58,3.32,BR,1603031823
503,Huarmey,-10.07,-78.15,292.73,70,86,3.54,PE,1603031825
504,São Raimundo Nonato,-9.02,-42.7,307.9,27,41,4.3,BR,1603031826
505,Mosetse,-20.75,26.65,308.51,10,0,6.36,BW,1603031827
506,Hokitika,-42.72,170.97,284.3,94,100,4.68,NZ,1603031828
507,Praia,14.92,-23.51,304.15,70,10,5.1,CV,1603031829
508,Luang Prabang,19.89,102.13,293.22,84,100,0.99,LA,1603031830
509,Pahrump,36.21,-115.98,294.82,22,1,1.5,US,1603031576
510,Manzhouli,49.6,117.43,277.04,73,68,3.9,CN,1603031254
511,Capiíbary,-24.8,-56.03,302.38,47,60,2.87,PY,1603031833
512,Santa Cruz,30.42,-9.6,296.15,60,100,5.1,MA,1603031834
513,Gorey,52.67,-6.29,284.82,92,75,5.08,IE,1603031835
514,Izyum,49.21,37.25,286.62,55,14,4.53,UA,1603031836
515,Cap Malheureux,-19.98,57.61,297.59,62,1,2.24,MU,1603031838
516,Samarai,-10.62,150.67,299.34,89,93,4.01,PG,1603031839
517,Tignère,7.37,12.65,299.02,62,1,2.67,CM,1603031840
518,The Valley,18.22,-63.06,303.15,74,20,3.6,AI,1603031841
519,São Filipe,14.9,-24.5,300.66,76,51,1.89,CV,1603031842
520,Yarim,14.3,44.38,289.23,31,0,1.63,YE,1603031843
521,Natchitoches,31.77,-93.13,291.15,88,75,3.6,US,1603031844
522,Nyurba,63.28,118.33,263.59,94,0,1.13,RU,1603031845
523,Mogadishu,2.04,45.34,302.15,66,40,6.2,SO,1603031846
524,Cedar City,37.68,-113.06,278.15,35,1,3.6,US,1603031847
525,Marabba,12.35,32.18,308.39,27,72,3.72,SD,1603031848
526,Kiruna,67.86,20.23,271.15,86,95,7.7,SE,1603031849
527,Nuuk,64.18,-51.72,279.15,87,75,1.0,GL,1603031765
528,Anadyr,64.75,177.48,266.15,85,18,2.0,RU,1603031851
529,Tsiroanomandidy,-18.77,46.03,297.94,48,56,1.78,MG,1603031853
530,Raudeberg,61.99,5.14,279.26,85,97,6.32,NO,1603031854
531,Los Algarrobos,8.5,-82.43,300.15,83,20,1.0,PA,1603031855
532,Mapiripán,2.89,-72.13,303.59,61,82,1.63,CO,1603031856
533,Boyolangu,-8.12,111.89,297.95,87,97,2.29,ID,1603031857
534,Necochea,-38.55,-58.74,297.2,70,51,4.25,AR,1603031858
535,Mariehamn,60.1,19.93,275.15,76,75,5.1,AX,1603031859
536,Palatka,29.65,-81.64,300.37,1,23,5.36,US,1603031860
537,Fort Nelson,58.81,-122.7,260.15,84,5,1.0,CA,1603031861
538,Don Luan,11.53,106.92,295.16,97,100,1.98,VN,1603031862
539,Hirara,24.8,125.28,298.69,82,7,11.27,JP,1603031864
540,Narsaq,60.92,-46.05,277.15,85,38,1.5,GL,1603031865
541,Qeshm,26.96,56.27,304.15,15,0,3.1,IR,1603031866
542,Soubre,5.79,-6.61,304.27,56,98,1.86,CI,1603031867
543,Poum,-20.23,164.02,296.1,71,0,7.67,NC,1603031868
544,Luancheng,37.88,114.65,286.15,54,88,2.0,CN,1603031869
545,Taoudenni,22.68,-3.98,309.48,13,0,4.79,ML,1603031870
546,Hambantota,6.12,81.12,301.15,78,54,3.6,LK,1603031871
547,Oranjemund,-28.55,16.43,290.76,65,0,8.51,NA,1603031872
548,Gubkinskiy,64.43,76.5,269.54,95,93,8.84,RU,1603031873
549,Freetown,8.48,-13.23,301.15,78,75,2.1,SL,1603031705
550,Abalak,58.13,68.59,272.11,97,22,2.84,RU,1603031876
551,Babayurt,43.6,46.78,289.39,91,0,3.95,RU,1603031877
552,Opuwo,-18.06,13.84,310.02,9,0,5.34,NA,1603031878
553,Naivasha,-0.72,36.44,289.26,81,84,4.47,KE,1603031879
554,Big Rapids,43.7,-85.48,281.15,93,90,4.1,US,1603031880
555,Worthington,40.09,-83.02,284.15,61,75,5.7,US,1603031881
556,Pakokku,21.33,95.1,300.29,81,89,1.1,MM,1603031882
557,Quang Ngai,15.12,108.8,297.72,90,100,0.57,VN,1603031883
558,Les Escoumins,48.11,-69.02,280.52,81,3,5.39,CA,1603031884
559,Abilene,32.45,-99.73,293.71,82,1,8.7,US,1603031855
560,Antalaha,-14.9,50.28,297.13,73,0,5.25,MG,1603031886
561,Cartagena,10.4,-75.51,303.15,89,40,4.1,CO,1603031887
562,Isla Vista,34.41,-119.86,286.15,93,90,1.23,US,1603031888
563,Departamento de Maldonado,-34.67,-54.92,300.15,57,20,3.1,UY,1603031889
564,Chak Thirty-one -Eleven Left,30.43,72.7,297.95,17,0,1.06,PK,1603031891
565,Kulu,39.1,33.08,293.33,38,97,1.22,TR,1603031892
566,Grindavik,63.84,-22.43,279.15,87,75,7.2,IS,1603031893
