,city,lat,lng,max_temp,humidity,cloudiness,wind_speed,country,date
0,Novopokrovka,49.84,36.55,296.15,31,0,2.0,UA,1599086510
1,Luena,-11.78,19.92,291.82,67,0,1.34,AO,1599086513
2,Deputatsky,69.3,139.9,274.61,88,86,2.98,RU,1599086516
3,Hobyo,5.35,48.53,297.8,84,75,10.47,SO,1599086519
4,Laguna,38.42,-121.42,302.59,42,1,2.6,US,1599086523
5,Rikitea,-23.12,-134.97,294.3,82,5,8.29,PF,1599086526
6,Cape Town,-33.93,18.42,289.26,93,75,7.7,ZA,1599086204
7,Torbay,47.67,-52.73,289.26,72,40,3.1,CA,1599086484
8,Leningradskiy,69.38,178.42,275.21,86,100,2.54,RU,1599086535
9,Vaini,-21.2,-175.2,297.15,94,90,5.1,TO,1599086539
10,Shache,38.42,77.24,291.57,28,59,1.82,CN,1599086542
11,Arraial do Cabo,-22.97,-42.03,294.7,89,0,8.46,BR,1599086463
12,Nhamundá,-2.19,-56.71,301.99,48,5,1.57,BR,1599086548
13,Mayo,38.89,-76.51,302.15,83,1,3.1,US,1599086552
14,Zhezkazgan,47.8,67.71,295.11,23,0,2.55,KZ,1599086555
15,Lebu,-37.62,-73.65,281.58,79,68,2.61,CL,1599086558
16,Lloydminster,53.28,-110.0,286.15,76,40,8.2,CA,1599086561
17,São Miguel do Araguaia,-13.28,-50.16,299.91,29,1,1.63,BR,1599086565
18,Manowa,8.17,-10.75,294.77,95,98,1.48,SL,1599086568
19,Karratha,-20.74,116.85,294.97,23,69,3.56,AU,1599086562
20,Kirakira,-10.45,161.92,301.33,78,33,6.98,SB,1599086574
21,Busselton,-33.65,115.33,284.82,59,95,5.22,AU,1599086578
22,São Filipe,14.9,-24.5,298.53,85,99,5.6,CV,1599086508
23,Ushuaia,-54.8,-68.3,276.15,74,90,0.94,AR,1599086584
24,Mūl,20.07,79.67,297.92,90,91,0.41,IN,1599086587
25,Albany,42.6,-73.97,295.93,87,98,2.87,US,1599086555
26,Bluff,-46.6,168.33,280.37,72,62,4.92,NZ,1599086544
27,Punta Arenas,-53.15,-70.92,280.15,70,40,3.6,CL,1599086441
28,Bredasdorp,-34.53,20.04,288.15,77,60,7.2,ZA,1599086600
29,Susanino,58.15,41.59,280.99,92,15,2.22,RU,1599086603
30,New Norfolk,-42.78,147.06,285.37,61,4,1.79,AU,1599086474
31,Castro,-24.79,-50.01,288.49,94,1,3.54,BR,1599086610
32,Ambon City,-3.7,128.18,299.26,94,75,2.1,ID,1599086613
33,Burnie,-41.07,145.92,285.37,92,52,4.92,AU,1599086616
34,Berdigestyakh,62.1,126.7,284.39,75,58,2.52,RU,1599086619
35,Kapaa,22.08,-159.32,302.59,62,75,5.1,US,1599086623
36,Cabo San Lucas,22.89,-109.91,304.82,66,75,2.1,MX,1599086423
37,Airai,-8.93,125.41,292.02,53,39,1.63,TL,1599086522
38,Araouane,18.9,-3.53,307.3,39,10,7.25,ML,1599086556
39,Lebanon,36.21,-86.29,303.15,70,20,3.6,US,1599086372
40,Aklavik,68.22,-135.01,283.15,93,90,1.5,CA,1599086556
41,Luganville,-15.53,167.17,299.15,74,75,4.1,VU,1599086576
42,Washington,47.5,-120.5,303.71,25,75,1.34,US,1599086470
43,Carnarvon,-24.87,113.63,286.15,87,0,3.6,AU,1599086467
44,Tura,25.52,90.22,295.88,95,7,1.51,IN,1599086531
45,Mataura,-46.19,168.86,280.37,72,44,4.92,NZ,1599086460
46,Port Lincoln,-34.73,135.87,286.84,65,44,10.91,AU,1599086658
47,Kaitangata,-46.28,169.85,283.71,62,15,4.02,NZ,1599086571
48,Ixtapa,20.7,-105.2,304.26,74,75,5.1,MX,1599086664
49,Port Elizabeth,-33.92,25.57,283.15,81,0,2.6,ZA,1599086667
50,George Town,5.41,100.34,300.15,94,20,2.01,MY,1599086671
51,Hobart,-42.88,147.33,285.37,62,20,2.6,AU,1599086591
52,Chui,-33.7,-53.46,288.81,97,100,6.12,UY,1599086574
53,Jamestown,42.1,-79.24,296.48,83,90,4.6,US,1599086465
54,Cairns,-16.92,145.77,297.59,73,40,5.1,AU,1599086639
55,Tsumeb,-19.23,17.72,291.64,53,29,1.95,NA,1599086687
56,Atuona,-9.8,-139.03,299.13,79,17,10.28,PF,1599086690
57,Fortuna,40.6,-124.16,292.04,72,1,5.1,US,1599086529
58,Klaksvík,62.23,-6.59,284.15,100,84,3.1,FO,1599086696
59,Hermanus,-34.42,19.23,289.82,76,78,2.68,ZA,1599086699
60,Ferme-Neuve,46.7,-75.45,291.56,93,74,2.65,CA,1599086703
61,Kosh-Agach,50.0,88.67,279.41,70,0,0.42,RU,1599086706
62,Acaraú,-2.89,-40.12,298.81,70,4,7.68,BR,1599086562
63,Hilo,19.73,-155.09,303.15,55,1,4.1,US,1599086469
64,Saint Paul Harbor,57.79,-152.41,284.42,82,92,1.87,US,1599086460
65,Qaanaaq,77.48,-69.36,270.38,81,0,2.84,GL,1599086465
66,Cidreira,-30.18,-50.21,290.44,88,1,10.26,BR,1599086489
67,Kuntaur,13.67,-14.88,296.48,95,100,3.41,GM,1599086725
68,Hokitika,-42.72,170.97,283.77,47,0,1.06,NZ,1599086728
69,Tasiilaq,65.61,-37.64,278.15,92,100,3.1,GL,1599086731
70,Labuhan,-6.88,112.21,298.09,85,80,4.09,ID,1599086735
71,Rawson,-43.3,-65.1,287.05,42,89,6.05,AR,1599086446
72,Eldersburg,39.4,-76.95,301.48,85,93,2.07,US,1599086741
73,Genhe,50.78,121.52,283.13,87,20,1.01,CN,1599086745
74,Ponta do Sol,32.67,-17.1,295.15,78,75,4.1,PT,1599086483
75,Inhambane,-23.86,35.38,291.03,71,74,3.54,MZ,1599086751
76,Faanui,-16.48,-151.75,298.64,77,64,8.08,PF,1599086728
77,Kruisfontein,-34.0,24.73,287.04,42,0,0.89,ZA,1599086523
78,Saint-Philippe,-21.36,55.77,292.59,68,40,2.6,RE,1599086761
79,Mapiri,-15.25,-68.17,295.62,62,69,0.55,BO,1599086764
80,Chokurdakh,70.63,147.92,278.15,72,91,4.63,RU,1599086767
81,Tual,-5.67,132.75,299.55,83,95,9.26,ID,1599086770
82,Gizo Government Station,-8.1,156.84,302.35,70,0,3.9,SB,1599086774
83,Poum,-20.23,164.02,294.42,59,5,4.9,NC,1599086777
84,Barrow,71.29,-156.79,277.15,86,90,7.2,US,1599086550
85,Río Gallegos,-51.62,-69.22,280.15,71,81,4.6,AR,1599086727
86,Killybegs,54.63,-8.45,287.59,91,79,2.24,IE,1599086787
87,Nikolskoye,59.7,30.79,286.48,87,61,3.0,RU,1599086693
88,Bima,-8.47,118.72,298.15,84,86,1.81,ID,1599086793
89,Grand-Santi,4.25,-54.38,299.88,66,79,0.87,GF,1599086796
90,Lahat,-3.8,103.53,295.56,89,100,0.59,ID,1599086799
91,Tevaitoa,-16.78,-151.5,299.01,74,45,7.99,PF,1599086803
92,Butaritari,3.07,172.79,301.37,75,24,6.49,KI,1599086584
93,Soe,-9.86,124.28,294.94,64,16,2.4,ID,1599086809
94,Santo Tomas,14.11,121.14,300.37,88,95,0.62,PH,1599086812
95,Sitka,57.05,-135.33,286.15,82,90,3.6,US,1599086816
96,Lewiston,44.1,-70.21,291.15,93,90,5.1,US,1599086819
97,Kahului,20.89,-156.47,305.15,46,40,11.8,US,1599086699
98,Ibrā’,22.69,58.53,299.9,57,3,1.21,OM,1599086825
99,Saskylakh,71.92,114.08,279.83,83,100,2.86,RU,1599086581
100,Olafsvik,64.89,-23.71,281.1,77,98,13.29,IS,1599086715
101,Longyearbyen,78.22,15.64,277.15,86,75,3.6,SJ,1599086835
102,Pisco,-13.7,-76.22,290.37,77,2,8.7,PE,1599086838
103,Bengkulu,-3.8,102.27,297.53,90,95,3.55,ID,1599086842
104,Kuching,1.55,110.33,296.15,100,40,1.0,MY,1599086845
105,Puerto Ayora,-0.74,-90.35,293.71,83,85,3.13,EC,1599086848
106,Porkhov,57.77,29.56,287.15,82,95,3.0,RU,1599086851
107,Port Alfred,-33.59,26.89,291.16,78,43,3.57,ZA,1599086855
108,Dikson,73.51,80.55,278.06,84,0,4.54,RU,1599086858
109,Pestravka,52.41,49.96,284.62,76,0,5.18,RU,1599086861
110,Adrar,20.5,-10.07,302.05,51,92,7.02,MR,1599086864
111,Avarua,-21.21,-159.78,299.15,78,2,6.7,CK,1599086704
112,Vila Velha,-20.33,-40.29,296.48,78,20,2.1,BR,1599086690
113,San Francisco,37.77,-122.42,295.15,56,20,8.2,US,1599086235
114,Cayenne,4.93,-52.33,301.15,74,0,2.6,GF,1599086877
115,Mobile,30.78,-88.2,305.93,62,20,3.6,US,1599086673
116,Naze,28.37,129.48,301.15,88,75,2.1,JP,1599086884
117,Marsá Maţrūḩ,31.35,27.25,299.15,83,0,3.1,EG,1599086887
118,Toucheng,24.86,121.82,302.04,88,16,1.84,TW,1599086890
119,Judaberg,59.17,5.87,289.82,77,10,5.7,NO,1599086893
120,Hambantota,6.12,81.12,297.15,100,75,1.0,LK,1599086897
121,Palmer,42.16,-72.33,294.26,94,90,1.5,US,1599086900
122,Mezen',65.85,44.24,279.48,80,63,2.44,RU,1599086763
123,Mar del Plata,-38.0,-57.56,281.48,100,90,5.1,AR,1599086906
124,Tautira,-17.73,-149.15,302.15,62,20,4.1,PF,1599086910
125,Beringovskiy,63.05,179.32,282.15,57,8,1.79,RU,1599086617
126,Bambous Virieux,-20.34,57.76,294.26,94,75,0.5,MU,1599086916
127,Brae,60.4,-1.35,286.15,93,100,8.7,GB,1599086919
128,Bonthe,7.53,-12.51,297.92,81,88,3.84,SL,1599086923
129,Thamaga,-24.67,25.54,289.15,63,90,6.2,BW,1599086926
130,Bethel,41.37,-73.41,297.04,94,95,2.38,US,1599086929
131,Dunedin,-45.87,170.5,284.26,66,0,1.34,NZ,1599086874
132,Los Llanos de Aridane,28.66,-17.92,295.15,68,4,3.6,ES,1599086728
133,Mazyr,52.05,29.25,290.59,89,80,4.85,BY,1599086939
134,Isla Vista,34.41,-119.86,299.26,60,1,5.1,US,1599086942
135,Valley City,46.92,-98.0,299.15,47,1,6.7,US,1599086945
136,Parintins,-2.63,-56.74,302.38,46,4,1.54,BR,1599086948
137,Ostrovnoy,68.05,39.51,283.47,78,100,8.31,RU,1599086918
138,Norman Wells,65.28,-126.83,287.15,71,75,3.6,CA,1599086955
139,Menzel Salem,35.86,8.48,292.15,68,20,1.0,TN,1599086958
140,Bonavista,48.65,-53.11,287.04,74,50,3.58,CA,1599086962
141,Belawan,3.78,98.68,297.43,91,100,2.6,ID,1599086965
142,Ribeira Grande,38.52,-28.7,296.3,82,94,2.53,PT,1599086968
143,Ilulissat,69.22,-51.1,277.15,80,99,2.1,GL,1599086971
144,Khatanga,71.97,102.5,280.51,74,100,7.25,RU,1599086915
145,Sungurlu,40.17,34.37,296.0,30,0,2.51,TR,1599086978
146,Talara,-4.58,-81.27,290.2,82,1,9.74,PE,1599086694
147,Roald,62.58,6.13,290.37,93,0,1.0,NO,1599086984
148,Dingle,11.0,122.67,299.65,86,85,0.73,PH,1599086988
149,Anadyr,64.75,177.48,283.15,71,40,1.0,RU,1599086991
150,Provideniya,64.38,-173.3,281.15,65,75,5.0,RU,1599086696
151,Hofn,64.25,-15.21,283.6,77,100,8.2,IS,1599086997
152,Paris,48.85,2.35,291.48,55,100,1.0,FR,1599086504
153,Najrān,17.49,44.13,300.15,42,65,1.5,SA,1599087004
154,Geraldton,-28.77,114.6,282.15,100,75,4.1,AU,1599087007
155,Hong Kong,22.29,114.16,303.15,84,44,1.79,HK,1599087010
156,Quryq,43.2,51.65,297.4,42,0,1.78,KZ,1599087014
157,Klyuchi,52.27,79.17,294.08,42,0,4.97,RU,1599087017
158,Sikonge,-5.63,32.77,292.31,47,6,4.83,TZ,1599087020
159,East London,-33.02,27.91,291.36,83,55,2.69,ZA,1599086910
160,Pangnirtung,66.15,-65.71,281.53,68,77,3.81,CA,1599087026
161,Port-Cartier,50.03,-66.87,286.48,87,90,4.6,CA,1599087030
162,Aldan,58.6,125.39,284.9,61,8,2.74,RU,1599087033
163,Dankov,53.25,39.16,289.15,63,100,4.0,RU,1599087036
164,Mahébourg,-20.41,57.7,294.15,94,75,0.5,MU,1599087040
165,Muzhi,65.37,64.67,281.45,79,93,8.8,RU,1599087043
166,San Patricio,19.22,-104.7,305.15,66,20,5.1,MX,1599087046
167,Villalba,18.13,-66.49,302.59,92,27,1.34,PR,1599087049
168,Plettenberg Bay,-34.05,23.37,288.77,44,0,3.1,ZA,1599087053
169,Muhafazat Lahij,13.17,44.58,304.14,46,2,2.89,YE,1599087056
170,Tomatlán,19.93,-105.25,302.36,72,1,2.89,MX,1599086765
171,Luba,3.46,8.55,298.15,100,75,1.0,GQ,1599087062
172,Antanifotsy,-19.65,47.32,285.89,77,72,1.75,MG,1599087066
173,Domoni,-12.26,44.53,295.68,73,1,3.28,KM,1599087069
174,Moerdijk,51.7,4.63,287.04,88,82,1.48,NL,1599087072
175,Arys,42.43,68.8,291.15,59,0,5.0,KZ,1599087075
176,Port Hardy,50.7,-127.42,290.15,77,20,4.6,CA,1599087079
177,Abū Zabad,12.35,29.25,297.9,73,52,3.79,SD,1599087082
178,Margate,51.38,1.39,289.26,79,100,2.24,GB,1599087085
179,Richards Bay,-28.78,32.04,290.75,70,31,8.35,ZA,1599087088
180,Pittsburg,38.03,-121.88,301.48,44,1,6.2,US,1599087081
181,Kamaishi,39.27,141.88,298.15,88,75,2.1,JP,1599087095
182,Lyuban',52.8,28.0,288.92,96,84,2.98,BY,1599087098
183,Baykit,61.67,96.37,279.76,86,43,1.75,RU,1599087101
184,Henties Bay,-22.12,14.28,285.37,84,0,0.79,NA,1599087105
185,Clyde River,70.47,-68.59,279.15,87,75,5.1,CA,1599087108
186,Tuktoyaktuk,69.45,-133.04,284.15,87,75,1.5,CA,1599087111
187,Las Varas,21.17,-105.17,304.26,69,20,4.1,MX,1599087115
188,Vao,-22.67,167.48,292.91,71,17,10.01,NC,1599087118
189,Coahuayana Viejo,18.73,-103.68,300.15,83,75,5.1,MX,1599087121
190,Phonhong,18.5,102.42,297.55,89,39,0.62,LA,1599087125
191,Kargil,34.57,76.1,285.97,55,31,2.4,IN,1599087128
192,Iracoubo,5.48,-53.2,299.75,81,75,5.71,GF,1599087131
193,Yerbogachën,61.28,108.01,284.33,87,93,4.69,RU,1599086982
194,Wahiawā,21.5,-158.02,305.15,54,75,5.7,US,1599086953
195,Bull Savanna,17.89,-77.59,299.42,81,100,4.06,JM,1599087141
196,Nur-Sultan,51.18,71.45,291.15,45,0,4.0,KZ,1599087144
197,Valparaíso,-33.04,-71.63,289.15,58,1,6.2,CL,1599087147
198,Ürümqi,43.8,87.6,294.15,37,11,3.0,CN,1599086892
199,Mopti,14.67,-4.0,296.89,79,100,6.22,ML,1599087154
200,Katsuura,35.13,140.3,302.04,87,65,6.58,JP,1599087157
201,Amberley,39.2,-84.43,300.15,69,20,3.6,US,1599086891
202,Faya,18.39,42.45,292.15,88,20,3.53,SA,1599087164
203,Murgab,37.5,61.97,296.15,31,0,3.1,TM,1599087167
204,Kulhudhuffushi,6.62,73.07,299.26,88,100,9.8,MV,1599087170
205,Tuatapere,-46.13,167.68,280.37,72,33,4.92,NZ,1599087173
206,Samarai,-10.62,150.67,298.83,87,86,8.42,PG,1599087177
207,Nālūt,30.33,10.85,298.31,55,24,5.06,LY,1599087180
208,Morón,-34.65,-58.62,284.26,99,100,3.58,AR,1599087183
209,Huarmey,-10.07,-78.15,290.2,75,9,4.78,PE,1599087187
210,Misratah,32.38,15.09,299.54,83,6,4.76,LY,1599087190
211,Flin Flon,54.77,-101.86,288.15,51,75,3.6,CA,1599087193
212,Berlevåg,70.86,29.09,285.56,67,99,7.69,NO,1599087196
213,Lagoa,39.05,-27.98,296.03,78,93,2.29,PT,1599087200
214,Kaseda-shirakame,31.42,130.32,296.15,100,75,5.1,JP,1599087203
215,Erzin,36.96,36.2,302.04,86,33,1.54,TR,1599087206
216,Yangi Marg`ilon,40.43,71.72,297.15,44,76,2.1,UZ,1599087209
217,Eydhafushi,5.1,73.07,301.03,78,87,9.91,MV,1599087213
218,Lüderitz,-26.65,15.16,285.92,59,0,3.88,NA,1599087216
219,Kitwe,-12.8,28.25,290.14,51,0,4.05,ZM,1599087219
220,Saint George,37.1,-113.58,310.37,11,1,2.1,US,1599086953
221,Tilichiki,60.47,166.1,283.11,78,97,3.27,RU,1599087225
222,Nha Trang,12.25,109.18,300.15,88,20,2.1,VN,1599087048
223,Conceição do Araguaia,-8.26,-49.26,302.35,28,30,1.97,BR,1599087232
224,Khandyga,62.67,135.6,284.38,96,100,2.74,RU,1599087235
225,Xining,36.62,101.77,283.25,60,40,0.92,CN,1599087132
226,Horsham,51.06,-0.33,289.82,82,40,3.1,GB,1599087242
227,Hasaki,35.73,140.83,302.15,89,20,4.6,JP,1599087135
228,Port Shepstone,-30.74,30.45,290.26,75,20,6.09,ZA,1599087248
229,Kidal,18.44,1.41,300.64,62,33,10.95,ML,1599087251
230,San Luis,-33.3,-66.34,283.94,45,0,3.82,AR,1599087254
231,Upernavik,72.79,-56.15,276.86,74,67,2.59,GL,1599087258
232,Santa Pola,38.19,-0.57,298.15,73,40,1.0,ES,1599087261
233,Ranong,9.97,98.63,299.95,82,100,0.99,TH,1599087264
234,Bentiu,9.23,29.83,295.47,93,99,1.28,SS,1599087268
235,Srednekolymsk,67.45,153.68,279.52,70,77,3.87,RU,1599087271
236,Gushikawa,26.35,127.87,301.15,94,20,1.5,JP,1599087274
237,Malindi,-3.22,40.12,297.04,81,13,5.82,KE,1599087277
238,Egvekinot,66.32,-179.17,275.88,82,100,1.16,RU,1599087281
239,Taman',45.21,36.72,293.15,94,0,3.0,RU,1599087284
240,Omboué,-1.57,9.26,296.04,87,64,2.84,GA,1599087287
241,Ovalle,-30.6,-71.2,287.76,54,0,1.55,CL,1599087230
242,Dvinskoy Bereznik,62.86,42.71,280.52,92,2,0.98,RU,1599087293
243,Yellowknife,62.46,-114.35,285.15,54,40,5.7,CA,1599087297
244,Dryden,49.78,-92.75,290.15,55,75,5.7,CA,1599087300
245,Codrington,-38.27,141.97,284.76,82,1,9.14,AU,1599087182
246,Biak,-0.91,122.88,298.94,79,66,2.91,ID,1599087306
247,Itaituba,-4.28,-55.98,302.92,36,16,1.18,BR,1599087310
248,Lahaina,20.88,-156.68,305.15,48,40,7.7,US,1599087245
249,Tiksi,71.69,128.87,277.7,82,6,6.41,RU,1599087316
250,Lavrentiya,65.58,-171.0,278.23,76,100,3.46,RU,1599087319
251,Ongandjera,-17.88,15.07,291.58,22,12,3.58,NA,1599087322
252,Pevek,69.7,170.31,275.83,83,88,2.99,RU,1599087326
253,Turochak,52.26,87.12,286.21,77,5,1.46,RU,1599087329
254,Bathsheba,13.22,-59.52,302.15,70,20,4.6,BB,1599087164
255,Austin,30.27,-97.74,302.15,83,20,2.1,US,1599086551
256,Thunder Bay,48.4,-89.32,294.15,43,40,9.3,CA,1599087172
257,Olinda,-8.01,-34.86,296.15,88,20,2.1,BR,1599087342
258,La Asuncion,11.03,-63.86,301.15,83,36,3.1,VE,1599087345
259,Yarkovo,57.4,67.08,280.09,86,1,5.55,RU,1599087348
260,Kavieng,-2.57,150.8,302.0,69,60,2.61,PG,1599087352
261,Dandong,40.13,124.39,291.29,93,100,5.87,CN,1599087221
262,Sydney Mines,46.24,-60.22,288.15,77,75,4.6,CA,1599087358
263,Seydi,39.48,62.91,296.51,22,0,4.2,TM,1599087361
264,Atasū,48.68,71.64,293.99,29,2,2.62,KZ,1599087364
265,Sobolevo,54.43,31.9,288.95,83,89,5.82,RU,1599087368
266,Hithadhoo,-0.6,73.08,300.83,74,100,4.84,MV,1599087152
267,Sinnai,39.3,9.2,294.82,82,8,1.5,IT,1599087374
268,Podhum,43.72,17.0,295.15,56,100,3.6,BA,1599087377
269,Northam,51.03,-4.22,290.93,98,98,4.92,GB,1599087381
270,Jiuquan,39.74,98.52,289.6,28,75,1.66,CN,1599087384
271,Novomykolayivka,47.98,35.91,296.48,46,3,2.69,UA,1599087387
272,Banda Aceh,5.56,95.32,299.76,71,100,3.33,ID,1599087303
273,Livingston,55.9,-3.52,290.15,93,20,7.2,GB,1599087206
274,Columbus,39.96,-83.0,299.26,69,90,5.1,US,1599087339
275,Nome,64.5,-165.41,282.15,70,75,6.2,US,1599087153
276,Husavik,66.04,-17.34,280.15,87,75,5.7,IS,1599087403
277,Qasigiannguit,68.82,-51.19,277.15,80,100,2.1,GL,1599087406
278,Lorengau,-2.02,147.27,302.39,68,74,1.45,PG,1599087410
279,Lompoc,34.64,-120.46,293.71,68,1,7.2,US,1599087413
280,Cañete,-37.8,-73.4,280.21,85,83,0.81,CL,1599087416
281,Mareeba,-17.0,145.43,298.15,76,45,2.24,AU,1599087419
282,Chumikan,54.72,135.31,285.15,95,100,1.78,RU,1599087423
283,Wagar,16.15,36.2,304.02,55,95,5.43,SD,1599087426
284,Salé,34.04,-6.82,293.71,93,40,1.5,MA,1599087429
285,Baharly,38.44,57.43,296.84,20,0,1.79,TM,1599087432
286,Tecpan,14.76,-90.99,299.15,50,75,3.1,GT,1599087436
287,Novy Urengoy,66.08,76.63,279.87,77,100,4.51,RU,1599087439
288,Puro,12.48,123.38,301.2,74,99,1.14,PH,1599087442
289,Baijiantan,45.63,85.18,296.61,24,0,0.37,CN,1599087445
290,Rocha,-34.48,-54.33,288.69,96,100,5.26,UY,1599087449
291,Strelka,58.07,93.03,283.58,95,97,2.09,RU,1599087452
292,Mariehamn,60.1,19.93,289.15,77,75,4.6,AX,1599087455
293,Tortolì,39.93,9.66,294.15,68,5,7.2,IT,1599087458
294,Sakakah,29.97,40.21,305.15,11,0,4.1,SA,1599087462
295,Maniitsoq,65.42,-52.9,280.08,62,82,3.83,GL,1599087197
296,Daru,-9.08,143.21,299.18,87,80,7.68,PG,1599087468
297,Thompson,55.74,-97.86,286.15,54,75,5.1,CA,1599087313
298,Porto-Novo,6.5,2.6,299.15,88,90,5.7,BJ,1599087474
299,Amga,60.9,131.96,285.3,87,2,1.43,RU,1599087478
300,Petropavlovsk-Kamchatskiy,53.05,158.65,286.15,93,75,1.0,RU,1599087481
301,Manama,26.22,50.58,305.15,70,0,1.03,BH,1599087484
302,Te Anau,-45.42,167.72,282.43,62,17,0.47,NZ,1599087487
303,Stornoway,58.21,-6.39,287.15,93,90,5.7,GB,1599087490
304,Smithers,54.78,-127.17,288.15,62,90,2.1,CA,1599087494
305,Videbæk,56.09,8.63,284.82,93,0,0.5,DK,1599087497
306,Umluj,25.02,37.27,303.7,46,12,2.79,SA,1599087500
307,Chara,56.91,118.26,286.35,61,0,0.08,RU,1599087504
308,Acapulco de Juárez,16.86,-99.89,303.15,74,5,3.1,MX,1599087507
309,Jinchang,38.5,102.17,289.59,32,100,1.26,CN,1599087510
310,Eureka,40.8,-124.16,292.04,37,38,0.45,US,1599087403
311,Kenai,60.55,-151.26,285.15,87,90,8.7,US,1599087517
312,Safi,32.3,-9.24,293.44,89,0,4.1,MA,1599087477
313,Cherskiy,68.75,161.3,279.69,61,6,4.18,RU,1599087370
314,Saint-Joseph,-21.37,55.62,292.15,68,40,2.6,RE,1599087526
315,Makkah al Mukarramah,21.43,39.83,303.94,41,27,0.96,SA,1599087529
316,Gordeyevka,52.96,31.97,292.58,81,79,6.33,RU,1599087533
317,Nouadhibou,20.93,-17.03,297.15,73,0,4.1,MR,1599087536
318,Morant Bay,17.88,-76.41,300.15,83,75,7.2,JM,1599087539
319,City of San Pedro,14.35,121.02,300.37,88,99,1.24,PH,1599087542
320,Myitkyina,25.38,97.4,296.69,80,82,0.44,MM,1599087384
321,El Batey,19.77,-70.52,303.15,84,20,4.1,DO,1599087549
322,Palau,7.5,134.62,300.15,83,75,1.82,PW,1599087552
323,Surgut,61.25,73.42,282.15,100,40,5.0,RU,1599087283
324,Ponta Delgada,37.73,-25.67,296.15,73,75,3.6,PT,1599087559
325,Anderson,34.53,-82.65,305.15,55,1,5.1,US,1599087563
326,Pustoshka,56.34,29.37,288.12,94,100,3.75,RU,1599087567
327,Tyup,42.73,78.36,287.45,60,0,0.63,KG,1599087570
328,Cam Ranh,11.92,109.16,300.15,88,20,1.0,VN,1599087574
329,Wenling,28.37,121.36,299.26,97,3,2.85,CN,1599087353
330,Ilūkste,55.98,26.3,291.72,95,100,5.21,LV,1599087368
331,Doumé,4.23,13.45,293.53,93,98,0.84,CM,1599087583
332,Nanortalik,60.14,-45.24,279.82,64,25,3.55,GL,1599087587
333,Souillac,-20.52,57.52,294.15,94,75,0.5,MU,1599087590
334,Bilibino,68.05,166.44,278.2,66,27,4.77,RU,1599087593
335,Porosozero,62.72,32.73,282.92,83,99,2.19,RU,1599087596
336,Manokwari,-0.87,134.08,299.85,75,100,2.85,ID,1599087600
337,Guilin,25.28,110.29,297.15,88,41,2.0,CN,1599087603
338,Wanning,18.8,110.4,299.88,81,43,1.62,CN,1599087607
339,Sergeevka,53.88,67.42,284.43,66,98,7.82,KZ,1599087611
340,Ahipara,-35.17,173.17,286.74,64,19,7.58,NZ,1599087340
341,Kyabé,9.45,18.94,294.75,96,100,2.65,TD,1599087617
342,Tromsø,69.65,18.96,283.15,87,75,8.7,NO,1599087621
343,Xiongzhou,25.12,114.3,298.81,77,53,0.55,CN,1599087368
344,Kalmunai,7.42,81.82,299.24,77,74,1.66,LK,1599087627
345,Sola,-13.88,167.55,299.13,81,95,13.26,VU,1599087630
346,Christchurch,-43.53,172.63,285.93,53,0,0.5,NZ,1599087634
347,Mankono,8.06,-6.19,294.72,96,13,1.78,CI,1599087637
348,Mossamedes,-15.2,12.15,290.93,80,2,0.21,AO,1599087513
349,San Antonio,29.42,-98.49,305.15,62,1,5.1,US,1599087594
350,Fort Nelson,58.81,-122.7,292.15,37,40,7.2,CA,1599087647
351,Yuncheng,35.02,110.99,292.26,43,0,1.47,CN,1599087650
352,Vila Franca do Campo,37.72,-25.43,296.15,73,75,3.6,PT,1599087481
353,Bloomfield,40.81,-74.19,301.15,69,75,2.6,US,1599087657
354,Cap Malheureux,-19.98,57.61,294.26,83,3,0.89,MU,1599087660
355,Burla,21.5,83.87,296.26,91,8,0.76,IN,1599087663
356,Mahon,39.89,4.27,292.15,68,0,1.5,ES,1599087666
357,Banjar,-8.19,114.97,299.15,100,40,6.2,ID,1599087670
358,Roebourne,-20.78,117.13,295.18,23,84,3.9,AU,1599087673
359,Tezu,27.92,96.17,298.21,72,80,1.13,IN,1599087676
360,Talnakh,69.49,88.4,273.15,69,90,1.0,RU,1599087679
361,Nuuk,64.18,-51.72,282.15,57,20,4.1,GL,1599087502
362,Caucayá,-0.19,-74.78,297.15,87,80,1.97,CO,1599087686
363,Severo-Kuril'sk,50.68,156.12,287.42,76,100,5.82,RU,1599087689
364,Waingapu,-9.66,120.26,298.68,80,79,3.51,ID,1599087693
365,Pochutla,15.74,-96.47,304.26,65,0,3.15,MX,1599087696
366,São João da Barra,-21.64,-41.05,295.27,86,0,4.11,BR,1599087577
367,Isangel,-19.55,169.27,296.15,69,75,5.1,VU,1599087597
368,Verkhnetulomskiy,68.61,31.8,283.15,81,97,2.0,RU,1599087706
369,Iqaluit,63.75,-68.51,278.15,93,75,5.7,CA,1599087669
370,Touros,-5.2,-35.46,297.15,88,20,3.1,BR,1599087541
371,Paamiut,61.99,-49.67,280.07,69,32,6.15,GL,1599087715
372,Osakarovka,50.56,72.57,292.25,31,0,4.71,KZ,1599087719
373,Okhotsk,59.38,143.3,285.73,85,86,2.83,RU,1599087684
374,Lourinhã,39.23,-9.32,292.04,85,0,0.45,PT,1599087725
375,Mitzic,0.78,11.55,293.84,99,66,1.1,GA,1599087729
376,Dudinka,69.41,86.18,273.15,79,90,1.0,RU,1599087732
377,Westport,41.14,-73.36,298.15,98,100,3.45,US,1599087735
378,Bridgton,44.05,-70.71,290.93,98,100,3.01,US,1599087738
379,Verkhnyaya Inta,65.98,60.31,278.64,85,100,7.98,RU,1599087652
380,Santa Fe,-31.63,-60.7,283.71,89,95,1.79,AR,1599087472
381,Sabang,5.89,95.32,301.22,70,100,3.12,ID,1599087749
382,Ballina,-28.87,153.57,293.15,82,50,2.51,AU,1599087752
383,Zhob,31.34,69.45,295.77,66,0,1.9,PK,1599087755
384,Vestmannaeyjar,63.44,-20.27,283.59,89,100,1.81,IS,1599087759
385,Innisfail,-17.53,146.03,292.04,89,61,1.79,AU,1599087561
386,Esim,4.87,-2.24,297.01,91,70,4.15,GH,1599087650
387,Nsanje,-16.92,35.26,292.49,83,22,1.66,MW,1599087768
388,Tazovsky,67.47,78.7,278.27,93,86,4.39,RU,1599087771
389,Rayong,12.83,101.43,303.71,66,99,0.77,TH,1599087775
390,Yulara,-25.24,130.99,287.15,28,0,2.6,AU,1599087720
391,Walvis Bay,-22.96,14.51,284.26,62,0,1.0,NA,1599087781
392,Mersing,2.43,103.84,297.15,94,87,2.6,MY,1599087784
393,Santa Cruz de la Sierra,-17.8,-63.17,294.15,60,0,1.0,BO,1599087660
394,Asău,46.43,26.4,289.26,94,99,1.43,RO,1599087791
395,Florø,61.6,5.03,290.15,59,2,11.3,NO,1599087794
396,Barra do Garças,-15.89,-52.26,299.74,23,47,0.36,BR,1599087590
397,Katobu,-4.94,122.53,298.31,85,66,2.94,ID,1599087801
398,Tambopata,-12.73,-69.18,299.05,65,29,1.48,PE,1599087804
399,Zhigansk,66.77,123.37,282.84,80,95,7.42,RU,1599087807
400,Miyako,39.64,141.95,297.17,92,100,5.26,JP,1599087810
401,Sittwe,20.15,92.9,299.09,86,89,2.23,MM,1599087814
402,Alugan,12.22,125.48,300.64,79,98,1.44,PH,1599087817
403,Comodoro Rivadavia,-45.87,-67.5,288.15,41,25,5.7,AR,1599087820
404,Padang,-0.95,100.35,298.42,78,80,1.79,ID,1599087823
405,Conakry,9.54,-13.68,299.44,78,100,5.05,GN,1599087531
406,Negara,-8.32,114.6,297.61,87,74,2.02,ID,1599087830
407,Praia da Vitória,38.73,-27.07,295.37,83,20,2.38,PT,1599087833
408,Torgau,51.57,13.0,287.15,82,75,2.6,DE,1599087836
409,Guerrero Negro,27.98,-114.06,299.49,61,0,7.01,MX,1599087557
410,Safranbolu,41.25,32.69,292.49,50,0,0.88,TR,1599087843
411,Saldanha,-33.01,17.94,287.15,93,0,3.1,ZA,1599087846
412,Ust-Nera,64.57,143.2,282.68,61,93,0.95,RU,1599087849
413,Annaberg-Buchholz,50.58,13.01,282.59,91,93,1.97,DE,1599087853
414,Barra de Tecoanapa,16.52,-98.75,302.1,69,0,3.86,MX,1599087856
415,Wonthaggi,-38.6,145.59,289.26,70,61,6.49,AU,1599087773
416,Pierre,44.37,-100.35,308.15,16,1,9.3,US,1599087656
417,Arona,28.1,-16.68,297.04,78,0,3.6,ES,1599087865
418,Maigo,8.16,123.96,300.78,74,35,0.45,PH,1599087869
419,Trairi,-3.28,-39.27,298.72,72,1,5.9,BR,1599087872
420,Uglovoye,44.82,33.6,296.59,70,19,1.75,UA,1599087875
421,Kishapu,-3.62,33.87,291.39,54,0,4.47,TZ,1599087878
422,Iwanai,42.97,140.51,297.75,71,8,4.29,JP,1599087882
423,Bulgan,48.81,103.53,284.34,71,74,1.61,MN,1599087885
424,Gananoque,44.33,-76.17,296.48,49,26,3.13,CA,1599087888
425,Meulaboh,4.14,96.13,298.05,80,100,1.62,ID,1599087891
426,Ouahigouya,13.58,-2.42,297.72,77,100,3.34,BF,1599087620
427,La Rioja,42.25,-2.5,287.15,71,0,2.33,ES,1599087898
428,Rio Grande,-32.03,-52.1,289.82,96,99,1.34,BR,1599087644
429,Bandarbeyla,9.49,50.81,298.77,73,72,9.76,SO,1599087904
430,São Sebastião,-23.76,-45.41,294.19,88,58,4.14,BR,1599087907
431,Saraland,30.82,-88.07,306.15,63,20,3.6,US,1599087911
432,Nabire,-3.37,135.48,298.23,81,100,1.06,ID,1599087914
433,Semey,50.41,80.23,291.15,63,0,2.0,KZ,1599087917
434,Baiyin,36.56,104.21,286.48,81,91,3.0,CN,1599087921
435,Victor Harbor,-35.57,138.62,285.93,85,55,0.45,AU,1599087924
436,Temnikov,54.63,43.21,283.12,87,0,2.71,RU,1599087927
437,Chimbote,-9.09,-78.58,289.47,79,22,5.12,PE,1599087930
438,Qandala,11.47,49.87,305.16,54,6,1.77,SO,1599087671
439,Phanom Sarakham,13.75,101.36,304.26,100,92,1.46,TH,1599087937
440,Davila,18.47,120.58,298.15,94,75,1.5,PH,1599087940
441,Bar Harbor,44.39,-68.2,291.15,88,90,5.1,US,1599087796
442,Pemberton,50.32,-122.8,296.15,49,20,1.5,CA,1599087946
443,Tabas,33.6,56.92,296.15,17,0,2.1,IR,1599087950
444,Nelson Bay,-32.72,152.15,292.15,55,0,3.1,AU,1599087953
445,Bagdarin,54.43,113.6,281.31,87,85,0.27,RU,1599087956
446,Martí,22.95,-80.92,297.15,94,75,2.1,CU,1599087960
447,Kapoeta,4.77,33.59,298.1,50,20,1.59,SS,1599087963
448,Staryy Nadym,65.61,72.68,280.97,93,100,5.66,RU,1599087966
449,Granada,37.19,-3.61,293.15,64,0,0.58,ES,1599087914
450,Belaya Gora,68.53,146.42,279.69,75,71,6.24,RU,1599087973
451,Sorata,-15.77,-68.63,281.19,80,91,2.38,BO,1599087976
452,Lata,40.16,-8.33,292.59,87,0,0.5,PT,1599087979
453,Shenjiamen,29.96,122.3,298.86,75,0,7.4,CN,1599087982
454,Mulchén,-37.72,-72.23,286.15,58,75,2.1,CL,1599087986
455,Dubai,25.26,55.3,305.15,70,0,2.6,AE,1599087892
456,Great Bend,38.36,-98.76,304.26,45,90,2.1,US,1599087992
457,Vardø,70.37,31.11,287.15,67,100,4.1,NO,1599087719
458,Anori,-3.77,-61.64,303.86,48,80,0.82,BR,1599087999
459,Tay Ninh,11.3,106.1,298.5,92,99,2.95,VN,1599088002
460,Belmonte,-15.86,-38.88,294.15,88,75,2.6,BR,1599088005
461,The Pas,53.83,-101.25,288.15,67,40,3.6,CA,1599088009
462,Bariloche,-41.15,-71.31,279.15,70,75,7.2,AR,1599088012
463,Wagga Wagga,-35.12,147.37,287.15,71,40,3.1,AU,1599087947
464,Atherton,53.52,-2.49,290.37,91,100,1.79,GB,1599088018
465,Adelaide,-34.93,138.6,287.04,71,75,9.3,AU,1599088022
466,Freiberg,50.92,13.37,285.93,84,97,0.89,DE,1599088025
467,Hūn,29.13,15.95,301.25,25,0,5.14,LY,1599088028
468,Khakhea,-24.69,23.49,290.24,61,39,11.14,BW,1599088031
469,Aligoodarz,33.4,49.69,285.64,51,1,0.5,IR,1599088035
470,Nejdek,50.32,12.73,282.59,93,95,1.0,CZ,1599088038
471,Southbridge,42.08,-72.03,292.59,99,100,3.16,US,1599088041
472,Sladkovo,55.53,70.34,283.47,85,100,7.94,RU,1599088044
473,Mirny,62.54,113.96,285.15,100,90,2.0,RU,1599088048
474,Kayasula,44.33,45.0,294.11,74,90,3.39,RU,1599088051
475,Sechura,-5.56,-80.82,291.63,69,0,8.82,PE,1599088054
476,Kitimat,54.05,-128.65,288.71,80,100,2.02,CA,1599088058
477,Kavaratti,10.57,72.64,300.38,81,100,8.07,IN,1599088061
478,Port Hedland,-20.32,118.57,291.15,45,95,3.6,AU,1599088064
479,College,64.86,-147.8,285.15,66,75,1.5,US,1599088067
480,Sarakhs,36.54,61.16,293.15,37,0,1.0,IR,1599088071
481,Östersund,63.18,14.64,284.15,71,0,5.7,SE,1599087817
482,Villazón,-22.09,-65.59,282.76,23,0,5.51,BO,1599088077
483,Mawlaik,23.63,94.42,297.14,87,61,0.29,MM,1599088080
484,Almenara,-16.18,-40.69,293.01,68,57,1.41,BR,1599088083
485,Karaton,-6.34,106.1,299.26,94,40,1.5,ID,1599088087
486,Letterkenny,54.95,-7.73,287.33,90,56,4.08,IE,1599088090
487,Opuwo,-18.06,13.84,288.11,34,0,1.46,NA,1599088093
488,Sangīn,32.07,64.84,292.72,25,0,1.11,AF,1599088097
489,Tías,28.96,-13.64,296.15,83,20,4.6,ES,1599088100
490,Nara,34.69,135.8,302.04,83,75,2.6,JP,1599087954
491,Dzerzhinskoye,56.83,95.23,284.88,92,76,2.08,RU,1599088106
492,Caucaia,-3.74,-38.65,300.15,74,0,5.7,BR,1599088109
493,Hoquiam,46.98,-123.89,294.15,68,1,7.2,US,1599088113
494,Marsh Harbour,26.54,-77.06,302.53,79,31,5.93,BS,1599087852
495,Karasjok,69.47,25.51,285.15,71,99,10.8,NO,1599088119
496,Juneau,58.3,-134.42,285.37,91,100,0.45,US,1599088122
497,Camacha,33.08,-16.33,294.15,77,20,3.1,PT,1599088126
498,Van Buren,35.44,-94.35,299.15,83,75,1.5,US,1599088129
499,Necochea,-38.55,-58.74,281.48,90,100,2.78,AR,1599088132
500,Puerto Madryn,-42.77,-65.04,287.2,40,78,4.29,AR,1599088135
501,Evensk,61.95,159.23,284.82,52,36,3.64,RU,1599088139
502,George,-33.96,22.46,291.15,34,0,8.7,ZA,1599088142
503,Kloulklubed,7.04,134.26,300.15,83,75,3.02,PW,1599088145
504,Puerto Ayacucho,5.66,-67.62,296.1,96,100,1.46,VE,1599088149
505,Makakilo City,21.35,-158.09,305.15,43,75,4.1,US,1599088152
506,Westerly,41.38,-71.83,295.15,100,90,3.6,US,1599088155
507,Leshukonskoye,64.9,45.76,278.26,91,4,1.36,RU,1599088158
508,Pytalovo,57.07,27.91,289.19,93,95,4.5,RU,1599088161
509,Bajil,15.06,43.29,306.19,53,28,0.49,YE,1599088165
510,Yuxia,34.06,108.63,294.26,100,0,1.0,CN,1599088168
511,Kuvshinovo,57.03,34.17,284.95,85,49,3.76,RU,1599088171
512,Sompeta,18.93,84.6,300.51,77,100,0.73,IN,1599088174
513,Chengde,40.97,117.94,286.69,76,0,2.18,CN,1599088178
514,San Quintín,30.48,-115.95,295.93,70,0,5.64,MX,1599087898
515,Nioro,13.35,-15.75,296.52,96,100,2.1,GM,1599087925
516,Catuday,16.29,119.81,300.36,82,100,2.55,PH,1599088187
517,Shimoda,34.67,138.95,303.15,84,20,4.1,JP,1599088191
518,Nkoteng,4.52,12.03,293.86,98,54,1.78,CM,1599088194
519,Wajima,37.4,136.9,303.68,64,0,5.79,JP,1599088197
520,Vostok,46.49,135.88,292.44,90,99,1.92,RU,1599088200
521,Boromo,11.75,-2.93,297.62,88,100,1.44,BF,1599088204
522,Mount Gambier,-37.83,140.77,284.15,87,90,7.2,AU,1599088207
523,Peniche,39.36,-9.38,292.04,85,0,0.45,PT,1599088210
524,Zeya,53.75,127.27,286.52,88,22,1.48,RU,1599088214
525,High Level,58.52,-117.14,287.15,71,75,3.1,CA,1599088217
526,Celestún,20.87,-90.4,303.32,70,13,8.15,MX,1599088220
527,Balakhta,55.38,91.6,286.19,94,100,2.49,RU,1599088224
528,Goianésia,-15.32,-49.12,297.55,31,18,2.78,BR,1599088227
529,Waipawa,-41.41,175.52,284.26,61,3,7.7,NZ,1599088230
530,Constitución,-35.33,-72.42,283.15,81,0,5.42,CL,1599088233
531,Vorukh,39.85,70.58,290.03,43,77,1.11,TJ,1599088237
532,San Vicente,-26.62,-54.13,293.3,73,72,0.73,AR,1599088240
533,Sussex,41.18,-74.67,299.15,78,90,3.42,US,1599087943
534,Kumul,42.8,93.45,296.69,19,0,3.82,CN,1599088037
535,Tazmalt,36.39,4.4,295.15,78,40,2.1,DZ,1599088249
536,Āsosa,10.07,34.53,289.64,95,100,0.85,ET,1599088253
537,Narsaq,60.92,-46.05,281.15,45,11,1.0,GL,1599088256
538,Esperance,-33.87,121.9,279.15,100,76,4.6,AU,1599088259
539,Athabasca,54.72,-113.29,289.15,55,46,7.6,CA,1599087991
540,Georgiyevka,43.04,74.71,294.15,56,40,3.0,KZ,1599088265
541,Sisimiut,66.94,-53.67,279.01,73,89,2.08,GL,1599088175
542,Mil'kovo,54.72,158.62,282.46,90,99,0.64,RU,1599088272
543,Acarí,-15.43,-74.62,288.48,74,58,3.33,PE,1599088275
544,Ninghai,29.29,121.42,300.37,99,0,2.61,CN,1599088278
545,Brownsville,25.9,-97.5,307.15,52,1,8.7,US,1599088008
546,Verāval,20.9,70.37,299.34,84,100,3.08,IN,1599088285
547,Buchanan,5.88,-10.05,298.15,94,75,3.77,LR,1599088288
548,Rena,61.13,11.36,280.93,87,0,1.01,NO,1599088291
549,Tokmak,47.25,35.71,296.41,42,2,3.04,UA,1599088294
550,Lokachi,50.74,24.65,287.04,98,89,2.44,UA,1599088298
551,Gijang,35.24,129.21,299.15,69,75,10.3,KR,1599088301
552,Auki,-8.77,160.7,303.0,67,21,2.96,SB,1599088304
553,Aykhal,66.0,111.5,283.15,93,75,2.0,RU,1599088308
554,Montepuez,-13.13,39.0,293.33,76,64,4.65,MZ,1599088084
555,Galle,6.04,80.22,299.38,84,87,4.64,LK,1599088314
556,Maputo,-25.97,32.59,288.15,87,20,1.0,MZ,1599088134
557,Ozerna,49.63,25.33,286.46,84,98,2.62,UA,1599088207
558,Havre-St-Pierre,50.23,-63.6,288.15,67,90,4.1,CA,1599088324
559,Quatre Cocos,-20.21,57.76,294.26,100,75,1.5,MU,1599088327
560,Risod,19.97,76.78,295.27,85,88,1.49,IN,1599088330
561,Hervey Bay,-25.3,152.85,295.93,77,75,2.6,AU,1599088333
562,Santarém,-2.44,-54.71,302.15,74,20,2.6,BR,1599088337
563,Prainha,-1.8,-53.48,301.95,55,3,1.85,BR,1599088340
564,Caravelas,-17.71,-39.25,294.59,86,30,3.46,BR,1599088343
565,Pithorāgarh,29.58,80.22,290.51,99,57,0.15,IN,1599088347
566,Sakon Nakhon,17.16,104.15,297.76,89,55,1.45,TH,1599088350
567,Pangoa,-12.12,-73.0,296.93,68,61,0.22,PE,1599088353
568,San Cristobal,7.77,-72.22,296.15,83,75,4.1,VE,1599088129
569,Sterlitamak,53.62,55.95,280.87,80,0,4.38,RU,1599088360
570,Borogontsy,62.67,131.17,285.7,84,5,1.03,RU,1599088363
571,Coquimbo,-29.95,-71.34,286.15,82,0,7.2,CL,1599088366
572,Ambilobe,-13.2,49.05,291.07,89,18,1.22,MG,1599088369
573,Sinnamary,5.38,-52.95,299.57,81,53,5.58,GF,1599088373
574,Kolyvan',55.31,82.74,293.15,64,63,6.0,RU,1599088376
575,Papendrecht,51.83,4.69,287.59,88,81,0.45,NL,1599088379
