,city,lat,lng,max_temp,humidity,cloudiness,wind_speed,country,date
0,Butaritari,3.07,172.79,302.07,72,100,3.68,KI,1598915785
1,Talnakh,69.49,88.4,279.15,100,90,1.0,RU,1598915546
2,Husavik,66.04,-17.34,284.15,76,20,13.4,IS,1598915853
3,Ushuaia,-54.8,-68.3,276.15,94,40,12.9,AR,1598915826
4,São Filipe,14.9,-24.5,298.58,74,59,3.42,CV,1598915476
5,Thompson,55.74,-97.86,285.15,81,75,6.2,CA,1598915258
6,Port Elizabeth,-33.92,25.57,286.32,64,100,4.57,ZA,1598915460
7,Jiuquan,39.74,98.52,288.83,31,0,1.86,CN,1598915869
8,Wasilla,61.58,-149.44,284.82,87,90,3.1,US,1598915786
9,Newport,51.59,-3.0,285.93,85,76,2.08,GB,1598915608
10,Souillac,-20.52,57.52,294.15,83,75,6.7,MU,1598915879
11,Kruisfontein,-34.0,24.73,281.08,69,100,1.22,ZA,1598915882
12,Bengkulu,-3.8,102.27,297.3,91,90,2.45,ID,1598915745
13,Santa Cruz de La Palma,28.68,-17.76,295.15,73,28,4.1,ES,1598915888
14,Bambous Virieux,-20.34,57.76,294.15,83,75,6.7,MU,1598915891
15,Tuatapere,-46.13,167.68,280.37,72,97,4.92,NZ,1598915895
16,Bluff,-46.6,168.33,280.37,72,74,4.92,NZ,1598915390
17,Menongue,-14.66,17.69,290.24,64,16,2.76,AO,1598915901
18,Puerto Ayora,-0.74,-90.35,291.84,81,54,4.72,EC,1598915904
19,Saint-Philippe,-21.36,55.77,293.15,72,39,2.6,RE,1598915908
20,Cape Town,-33.93,18.42,282.04,93,4,5.1,ZA,1598915779
21,York,40.13,-77.0,292.04,93,100,4.13,US,1598915749
22,Mount Isa,-20.73,139.5,297.15,25,0,3.6,AU,1598915917
23,Mahébourg,-20.41,57.7,294.15,83,75,6.7,MU,1598915921
24,Albany,42.6,-73.97,295.37,61,98,2.01,US,1598915125
25,Sambava,-14.27,50.17,293.29,85,28,4.85,MG,1598915927
26,Port Alfred,-33.59,26.89,286.88,65,100,5.69,ZA,1598915424
27,Vaini,-21.2,-175.2,300.15,83,20,7.2,TO,1598915934
28,Manthani,18.65,79.67,298.65,83,99,0.92,IN,1598915937
29,Yellowknife,62.46,-114.35,283.15,66,75,5.1,CA,1598915940
30,Busselton,-33.65,115.33,284.26,59,57,9.87,AU,1598915944
31,Yangi Marg`ilon,40.43,71.72,295.15,43,0,3.1,UZ,1598915947
32,Hermanus,-34.42,19.23,282.59,91,7,0.45,ZA,1598915950
33,Umm Kaddadah,13.6,26.69,302.0,51,86,3.71,SD,1598915954
34,Ouallam,14.32,2.09,301.51,68,75,6.53,NE,1598915957
35,Gornopravdinsk,60.05,69.9,283.98,96,34,4.04,RU,1598915960
36,Pisco,-13.7,-76.22,291.15,72,50,7.2,PE,1598915667
37,Bredasdorp,-34.53,20.04,282.59,90,45,0.89,ZA,1598915161
38,Leshukonskoye,64.9,45.76,279.01,95,34,1.96,RU,1598915971
39,Amuntai,-2.42,115.25,296.79,93,100,0.38,ID,1598915974
40,Ixtapa,20.7,-105.2,302.15,74,90,3.1,MX,1598915978
41,Rikitea,-23.12,-134.97,293.59,85,86,7.53,PF,1598915981
42,Guerrero Negro,27.98,-114.06,299.52,55,0,6.45,MX,1598915394
43,Klaksvík,62.23,-6.59,284.15,93,100,6.7,FO,1598915987
44,Dumka,24.27,87.25,300.53,79,100,0.94,IN,1598915990
45,Kavaratti,10.57,72.64,301.16,76,100,5.86,IN,1598915994
46,Ribeira Grande,38.52,-28.7,295.26,74,71,6.13,PT,1598915997
47,Ilulissat,69.22,-51.1,276.15,86,0,1.0,GL,1598916001
48,Maragogi,-9.01,-35.22,296.47,81,9,4.72,BR,1598916004
49,Mataura,-46.19,168.86,280.37,72,88,4.92,NZ,1598916007
50,Lebu,-37.62,-73.65,281.71,83,0,2.78,CL,1598915420
51,Fuerte Olimpo,-21.04,-57.87,297.51,58,0,2.12,PY,1598916013
52,Kade,52.38,12.27,288.15,74,31,2.27,DE,1598916017
53,Tasiilaq,65.61,-37.64,278.15,86,99,2.1,GL,1598915769
54,Lüderitz,-26.65,15.16,285.47,49,0,10.66,NA,1598915798
55,Shahr-e Bābak,30.12,55.12,288.0,35,0,2.83,IR,1598916026
56,Fortuna,40.6,-124.16,296.48,60,40,6.2,US,1598915937
57,Kilosa,-6.83,36.98,292.58,77,1,1.05,TZ,1598916033
58,Atuona,-9.8,-139.03,299.26,76,59,10.56,PF,1598916036
59,Santa Flavia,38.09,13.54,297.04,71,98,3.87,IT,1598916039
60,Deputatsky,69.3,139.9,276.49,80,48,2.67,RU,1598916042
61,Iquitos,-3.75,-73.25,305.15,55,40,2.6,PE,1598916046
62,Qasigiannguit,68.82,-51.19,276.15,86,10,1.0,GL,1598916049
63,Punta Arenas,-53.15,-70.92,278.15,82,20,10.3,CL,1598915977
64,Mitsamiouli,-11.38,43.28,297.56,75,24,1.08,KM,1598916055
65,Vestmanna,62.16,-7.17,284.15,93,100,6.2,FO,1598916059
66,Matagami,49.75,-77.63,289.15,63,40,2.9,CA,1598916062
67,Biryusinsk,55.96,97.82,283.03,95,89,2.33,RU,1598916065
68,Nambour,-26.63,152.95,294.82,68,0,1.34,AU,1598916069
69,Norman Wells,65.28,-126.83,288.15,62,75,5.7,CA,1598915615
70,Luena,-11.78,19.92,290.8,58,54,1.19,AO,1598916075
71,Coyhaique,-45.58,-72.07,283.15,57,75,1.5,CL,1598915853
72,Saskylakh,71.92,114.08,278.85,77,94,3.25,RU,1598916082
73,New Norfolk,-42.78,147.06,279.82,70,65,1.34,AU,1598916085
74,Pevek,69.7,170.31,275.6,96,97,4.92,RU,1598916053
75,Hasaki,35.73,140.83,297.04,100,75,4.1,JP,1598916091
76,Novoagansk,61.94,76.66,285.15,93,92,6.63,RU,1598916095
77,Campo Maior,-4.83,-42.17,303.66,25,32,2.46,BR,1598916098
78,Dikson,73.51,80.55,279.57,96,72,4.6,RU,1598916101
79,Saint George,37.1,-113.58,309.15,11,1,9.8,US,1598916104
80,Kamenka,51.32,42.77,290.37,60,0,3.28,RU,1598916108
81,Coahuayana Viejo,18.73,-103.68,297.15,78,90,5.1,MX,1598916111
82,Praia,14.92,-23.51,299.15,78,40,4.1,CV,1598916114
83,Huancabamba,-5.24,-79.45,290.81,62,99,1.79,PE,1598916117
84,Hobart,-42.88,147.33,280.93,64,75,4.6,AU,1598916121
85,Sorong,-0.88,131.25,299.01,88,91,3.98,ID,1598916124
86,Zhangaözen,43.3,52.8,295.36,53,0,3.35,KZ,1598916127
87,Kapaa,22.08,-159.32,302.15,70,40,6.7,US,1598915644
88,Luganville,-15.53,167.17,300.15,83,75,3.1,VU,1598916133
89,Khatanga,71.97,102.5,278.33,84,26,4.59,RU,1598916137
90,Esperance,-33.87,121.9,284.15,100,75,8.2,AU,1598916140
91,Half Moon Bay,37.46,-122.43,296.48,72,20,5.1,US,1598915389
92,Jianning,27.83,113.15,298.15,88,0,3.0,CN,1598916147
93,Berbérati,4.26,15.79,293.79,97,100,1.01,CF,1598916151
94,Saint-Joseph,-21.37,55.62,292.15,72,25,2.6,RE,1598916154
95,Castro,-24.79,-50.01,288.53,93,68,4.59,BR,1598915608
96,Hermosillo,29.07,-110.97,310.37,45,43,2.68,MX,1598915825
97,Puri,19.8,85.85,301.15,94,40,2.1,IN,1598916164
98,Avarua,-21.21,-159.78,298.15,65,35,5.7,CK,1598916167
99,Torbay,47.67,-52.73,288.15,82,75,8.7,CA,1598916170
100,Carnarvon,-24.87,113.63,293.15,77,40,4.1,AU,1598916174
101,Borogontsy,62.67,131.17,284.45,83,52,1.31,RU,1598916177
102,Vostok,46.49,135.88,286.9,62,30,1.46,RU,1598916180
103,Linxia Chengguanzhen,35.6,103.21,285.66,72,0,1.24,CN,1598916183
104,Ciudad del Carmen,18.63,-91.83,307.15,59,5,1.5,MX,1598916187
105,Zaraza,9.35,-65.32,298.2,90,100,1.25,VE,1598916190
106,Rawson,-43.3,-65.1,279.9,61,33,6.11,AR,1598916193
107,Bataiporã,-22.3,-53.27,296.77,69,60,2.8,BR,1598916197
108,Tikrit,34.61,43.68,305.11,14,0,2.36,IQ,1598916200
109,Beira,-19.84,34.84,295.6,84,11,4.65,MZ,1598916203
110,Touros,-5.2,-35.46,296.15,94,75,3.6,BR,1598916207
111,Te Anau,-45.42,167.72,277.43,84,94,2.45,NZ,1598916210
112,Coquimbo,-29.95,-71.34,285.15,71,90,3.1,CL,1598915963
113,Sept-Îles,50.2,-66.38,285.37,71,75,1.5,CA,1598916083
114,Zuwārah,32.93,12.08,300.9,76,18,11.34,LY,1598916220
115,Konstantinovsk,47.58,41.09,293.6,34,0,3.35,RU,1598916223
116,Hong Kong,22.29,114.16,302.04,83,4,2.24,HK,1598915970
117,Port Hedland,-20.32,118.57,294.15,26,78,3.6,AU,1598916230
118,Kumëny,58.11,49.92,290.08,88,94,4.68,RU,1598916233
119,Vardø,70.37,31.11,282.15,76,42,6.2,NO,1598916236
120,Kyshtovka,56.55,76.63,289.55,94,100,3.9,RU,1598916239
121,Santa Maria da Vitória,-13.39,-44.19,299.63,23,19,4.33,BR,1598916243
122,Gigmoto,13.78,124.39,301.06,77,100,3.59,PH,1598916246
123,Zverinogolovskoye,54.46,64.85,289.69,79,97,2.4,RU,1598916250
124,Collie,-33.37,116.15,284.26,60,47,4.56,AU,1598916253
125,Edson,53.58,-116.44,292.15,32,1,6.2,CA,1598916256
126,Vestmannaeyjar,63.44,-20.27,284.64,88,100,9.98,IS,1598916260
127,Constitución,-35.33,-72.42,281.78,79,0,0.85,CL,1598915729
128,Tabora,-5.02,32.8,292.54,32,5,3.55,TZ,1598916266
129,Camden,39.78,-74.97,294.82,86,100,1.85,US,1598916269
130,Arraial do Cabo,-22.97,-42.03,295.15,88,20,4.1,BR,1598916273
131,Le Port,-20.94,55.29,293.15,77,14,5.7,RE,1598916276
132,Senanga,-16.12,23.27,294.8,43,68,1.37,ZM,1598916279
133,Siavonga,-16.54,28.71,297.37,48,22,1.85,ZM,1598916283
134,Kousséri,12.08,15.03,298.15,88,40,1.0,CM,1598916286
135,San Cristobal,7.77,-72.22,303.15,51,40,8.2,VE,1598916076
136,Sitka,57.05,-135.33,287.15,87,75,5.1,US,1598916292
137,Mendi,-6.18,143.65,290.88,78,77,0.38,PG,1598916296
138,Dodge City,37.75,-100.02,300.15,39,1,5.7,US,1598916131
139,Taksimo,56.34,114.88,286.4,76,100,1.63,RU,1598916302
140,Kyabé,9.45,18.94,295.15,95,79,1.55,TD,1598916306
141,Mkokotoni,-5.88,39.25,296.09,83,1,2.62,TZ,1598916309
142,Broome,42.25,-75.83,295.37,68,90,3.6,US,1598916312
143,Korla,41.76,86.15,297.59,69,47,0.45,CN,1598916315
144,Arlit,18.74,7.39,307.52,31,69,1.93,NE,1598916319
145,Linqiong,30.42,103.46,296.48,100,40,1.0,CN,1598916206
146,Khorinsk,52.17,109.77,282.57,85,100,2.84,RU,1598916325
147,Port Blair,11.67,92.75,300.46,77,100,1.46,IN,1598916328
148,Paracuru,-3.41,-39.03,299.26,77,0,8.05,BR,1598916332
149,Nome,64.5,-165.41,288.71,54,1,4.6,US,1598916335
150,Sabang,5.89,95.32,300.43,81,100,8.91,ID,1598916338
151,Quatre Cocos,-20.21,57.76,294.15,83,75,6.7,MU,1598916342
152,Balakovo,52.03,47.8,291.45,47,0,1.67,RU,1598916345
153,Waynesboro,38.07,-78.89,292.59,100,90,1.22,US,1598916348
154,Longyearbyen,78.22,15.64,277.15,88,75,7.2,SJ,1598916351
155,Severo-Kuril'sk,50.68,156.12,284.27,73,96,3.92,RU,1598916355
156,Jamestown,42.1,-79.24,293.71,88,90,4.1,US,1598916296
157,Springfield,37.22,-93.3,300.37,61,1,6.7,US,1598916240
158,Oktyabr'skoye,43.06,44.74,285.93,93,0,2.0,RU,1598916364
159,Tuktoyaktuk,69.45,-133.04,285.15,76,90,4.1,CA,1598916368
160,Aberfoyle,-30.27,152.02,281.58,84,93,2.24,AU,1598916372
161,Iguape,-24.71,-47.56,292.68,93,100,3.34,BR,1598916375
162,Nikolskoye,59.7,30.79,287.59,93,40,1.0,RU,1598916378
163,Ürümqi,43.8,87.6,292.15,42,0,4.0,CN,1598916369
164,Qaanaaq,77.48,-69.36,272.71,87,71,1.18,GL,1598916385
165,Puerto del Rosario,28.5,-13.86,297.15,78,90,3.6,ES,1598916389
166,Quezon,7.73,125.1,297.5,82,93,0.31,PH,1598916392
167,Gijón,43.54,-5.66,289.82,77,83,1.07,ES,1598916104
168,Cherskiy,68.75,161.3,279.58,76,85,0.57,RU,1598916399
169,San Fernando del Valle de Catamarca,-28.47,-65.79,287.04,48,24,2.24,AR,1598916402
170,Labytnangi,66.66,66.42,281.18,81,100,4.08,RU,1598916406
171,Mahibadhoo,3.78,72.97,301.71,72,100,5.04,MV,1598916409
172,Nishihara,26.18,127.76,300.15,94,75,20.1,JP,1598916412
173,Naze,28.37,129.48,303.15,84,75,12.3,JP,1598916415
174,Lavrentiya,65.58,-171.0,280.37,68,99,8.26,RU,1598916419
175,Beloha,-25.17,45.05,291.73,96,1,1.79,MG,1598916422
176,Pueblo,38.25,-104.61,300.15,26,1,7.7,US,1598916394
177,Cavalcante,-13.8,-47.46,297.2,34,3,2.31,BR,1598916429
178,Cabo San Lucas,22.89,-109.91,305.15,74,40,6.2,MX,1598916432
179,Chui,-33.7,-53.46,280.86,78,100,4.4,UY,1598916435
180,Dunedin,-45.87,170.5,279.82,80,100,0.89,NZ,1598916439
181,Viedma,-40.81,-63.0,280.93,74,0,1.34,AR,1598916316
182,Malakal,9.53,31.66,295.31,94,100,1.16,SS,1598916446
183,Ventspils,57.39,21.56,286.15,71,40,1.5,LV,1598916450
184,Lompoc,34.64,-120.46,294.26,64,1,6.2,US,1598916293
185,Manokwari,-0.87,134.08,300.65,65,67,1.16,ID,1598916457
186,Kamiiso,41.82,140.65,291.15,100,75,9.3,JP,1598916460
187,Darłowo,54.42,16.41,287.04,73,5,2.96,PL,1598916463
188,Hambantota,6.12,81.12,299.74,80,100,4.91,LK,1598916467
189,Kavieng,-2.57,150.8,302.46,68,91,1.28,PG,1598916471
190,Chokurdakh,70.63,147.92,277.49,84,100,4.33,RU,1598916474
191,Yar-Sale,66.83,70.83,280.22,87,96,4.98,RU,1598916478
192,Usinsk,65.99,57.53,280.99,92,91,4.16,RU,1598916481
193,Najrān,17.49,44.13,303.15,16,75,2.1,SA,1598916484
194,Yantal',56.85,105.25,282.63,91,45,1.28,RU,1598916488
195,Christchurch,-43.53,172.63,278.71,93,98,5.7,NZ,1598916241
196,Lagoa,39.05,-27.98,294.81,71,51,4.4,PT,1598916494
197,Brae,60.4,-1.35,285.15,87,9,5.7,GB,1598916498
198,Kumul,42.8,93.45,293.35,24,0,2.98,CN,1598916501
199,Vanimo,-2.67,141.3,301.76,69,79,0.83,PG,1598916505
200,Sangīn,32.07,64.84,293.41,24,0,2.2,AF,1598916508
201,Hilo,19.73,-155.09,299.15,83,90,1.5,US,1598916511
202,Taoudenni,22.68,-3.98,309.95,26,0,4.51,ML,1598916514
203,Namatanai,-3.67,152.43,301.96,73,65,2.25,PG,1598916518
204,Provideniya,64.38,-173.3,284.15,57,40,5.0,RU,1598916521
205,Goderich,43.75,-81.72,298.71,73,19,5.26,CA,1598916464
206,Barrow,71.29,-156.79,276.15,74,90,12.3,US,1598916527
207,Mashhad,36.3,59.61,288.15,58,0,2.1,IR,1598916531
208,Clyde River,70.47,-68.59,282.15,61,75,11.3,CA,1598916534
209,Paita,-5.09,-81.11,290.92,79,100,9.45,PE,1598916537
210,Upernavik,72.79,-56.15,276.54,78,99,1.38,GL,1598916541
211,Dalvik,65.97,-18.53,284.15,76,20,13.4,IS,1598916544
212,Kulhudhuffushi,6.62,73.07,301.12,78,60,5.17,MV,1598916548
213,Mingora,34.78,72.36,293.6,74,100,2.14,PK,1598916551
214,Iqaluit,63.75,-68.51,286.15,62,20,6.2,CA,1598916554
215,Voyvozh,62.89,54.96,279.89,100,76,1.33,RU,1598916558
216,Lensk,60.73,114.93,283.07,86,0,2.02,RU,1598916561
217,Mehamn,71.04,27.85,281.71,71,89,10.3,NO,1598916565
218,Taldan,53.67,124.8,283.21,99,100,1.75,RU,1598916568
219,Gmina Śrem,52.09,17.02,285.93,93,61,2.6,PL,1598916572
220,Mae Hong Son,19.3,97.97,295.63,85,95,0.71,TH,1598916575
221,Kainantu,-6.29,145.87,293.63,71,95,2.12,PG,1598916578
222,Vila Franca do Campo,37.72,-25.43,296.15,83,20,6.7,PT,1598916582
223,Iralaya,15.0,-83.23,304.15,70,20,4.1,HN,1598916585
224,Camacha,33.08,-16.33,294.15,73,20,6.2,PT,1598916589
225,San Patricio,19.22,-104.7,303.15,74,75,5.1,MX,1598916592
226,La Palma,33.85,-118.05,302.04,50,1,4.1,US,1598916595
227,Marabu,4.41,114.01,298.15,94,40,1.5,MY,1598916360
228,Pitsunda,43.16,40.34,295.37,77,0,5.0,GE,1598916602
229,Tignère,7.37,12.65,291.3,94,100,0.78,CM,1598916606
230,Marhaura,25.97,84.87,301.15,83,40,1.5,IN,1598916609
231,Moose Factory,51.26,-80.61,292.15,59,75,5.7,CA,1598916612
232,Redlands,34.06,-117.18,307.15,23,5,4.6,US,1598916616
233,Zhuhai,22.28,113.57,302.15,83,20,1.5,CN,1598916515
234,Deer Lake,49.17,-57.43,283.15,93,90,1.0,CA,1598916623
235,Byron Bay,-28.65,153.62,293.15,88,90,2.6,AU,1598916361
236,Los Llanos de Aridane,28.66,-17.92,295.15,73,8,4.1,ES,1598916629
237,Vao,-22.67,167.48,293.1,69,43,5.15,NC,1598916632
238,Faya,18.39,42.45,294.15,56,0,1.69,SA,1598916636
239,Griffith,41.53,-87.42,300.15,54,1,2.6,US,1598916639
240,Acapulco de Juárez,16.86,-99.89,303.15,70,40,1.0,MX,1598916643
241,Mar del Plata,-38.0,-57.56,280.37,56,75,2.6,AR,1598916646
242,Yulara,-25.24,130.99,290.15,39,0,3.1,AU,1598916649
243,Lokachi,50.74,24.65,288.15,92,86,2.83,UA,1598916653
244,Noumea,-22.28,166.46,296.48,49,40,1.5,NC,1598916656
245,Snezhnogorsk,69.19,33.25,278.15,100,90,1.0,RU,1598916660
246,Rantepao,-2.97,119.9,292.85,91,100,0.33,ID,1598916523
247,Esso,55.93,158.7,284.6,43,71,1.6,RU,1598916668
248,Ahipara,-35.17,173.17,289.57,70,85,4.94,NZ,1598916671
249,George Town,5.41,100.34,299.15,94,20,1.0,MY,1598916388
250,Atikokan,48.76,-91.62,286.97,62,88,3.44,CA,1598916677
251,Parchim,53.43,11.85,288.15,88,4,0.89,DE,1598916537
252,Donegal,54.65,-8.12,286.13,85,100,3.2,IE,1598916684
253,Snåase,64.25,12.38,277.0,79,0,0.58,NO,1598916687
254,Gamba,-2.65,10.0,296.1,86,84,3.64,GA,1598916691
255,Kirakira,-10.45,161.92,302.78,71,32,6.05,SB,1598916694
256,Baghdad,33.34,44.4,302.15,35,0,2.21,IQ,1598916698
257,Gizo Government Station,-8.1,156.84,302.2,76,73,5.33,SB,1598916701
258,Singaraja,-8.11,115.09,300.25,68,46,2.08,ID,1598916704
259,Yakovlevo,50.86,36.45,293.15,52,2,3.0,RU,1598916708
260,Ayagoz,47.97,80.44,288.13,45,22,4.17,KZ,1598916711
261,Syracuse,37.09,15.28,300.15,88,0,2.1,IT,1598916708
262,San Severino Marche,43.23,13.18,289.82,79,14,0.89,IT,1598916718
263,Guipavas,48.44,-4.4,286.15,93,64,2.1,FR,1598916721
264,Bogovarovo,58.98,47.02,289.82,97,99,2.4,RU,1598916725
265,Saint Paul Harbor,57.79,-152.41,289.15,59,90,6.7,US,1598916728
266,Aklavik,68.22,-135.01,287.15,62,75,3.1,CA,1598916606
267,Kjøllefjord,70.95,27.35,282.56,71,89,9.72,NO,1598916735
268,Fare,-16.7,-151.02,298.75,76,34,9.77,PF,1598916738
269,Ouro Preto do Oeste,-10.75,-62.22,301.64,38,25,0.67,BR,1598916742
270,Airai,-8.93,125.41,294.39,60,36,3.14,TL,1598916745
271,Garoowe,8.41,48.48,298.88,60,6,7.96,SO,1598916748
272,Lieksa,63.32,30.02,281.33,85,18,2.53,FI,1598916752
273,Lata,40.16,-8.33,290.37,53,95,1.06,PT,1598916755
274,Ancud,-41.87,-73.82,282.04,84,0,2.71,CL,1598916759
275,Sur,22.57,59.53,301.11,64,43,2.91,OM,1598916762
276,Nyimba,-14.56,30.81,295.51,54,0,5.94,ZM,1598916765
277,Oranjemund,-28.55,16.43,284.36,81,0,4.82,NA,1598916768
278,Comodoro Rivadavia,-45.87,-67.5,278.15,86,51,2.49,AR,1598916772
279,Padilla,3.22,-76.31,300.15,61,40,3.1,CO,1598916775
280,Pochutla,15.74,-96.47,304.15,66,40,2.6,MX,1598916778
281,Marabba,12.35,32.18,297.33,81,97,4.07,SD,1598916782
282,Qala,40.44,50.17,293.15,94,40,2.1,AZ,1598916785
283,San Jose,37.34,-121.89,300.93,44,5,3.1,US,1598916727
284,Banff,51.18,-115.57,289.82,43,84,4.47,CA,1598916792
285,Suzdal,56.43,40.44,292.12,82,79,5.08,RU,1598916795
286,Victor Harbor,-35.57,138.62,284.26,77,100,5.76,AU,1598916799
287,Westport,41.14,-73.36,295.15,68,1,3.1,US,1598916802
288,Kapit,2.02,112.93,298.15,92,100,0.46,MY,1598916805
289,Alyangula,-13.85,136.42,299.15,78,55,2.6,AU,1598916809
290,Padang,-0.95,100.35,298.76,76,74,1.48,ID,1598916812
291,Caniço,32.63,-16.85,295.15,64,20,9.8,PT,1598916816
292,Cidreira,-30.18,-50.21,287.09,71,100,5.54,BR,1598916819
293,Martinópolis,-22.15,-51.17,300.15,32,5,3.6,BR,1598916562
294,Masvingo,-20.06,30.83,287.43,90,92,4.38,ZW,1598916825
295,Geraldton,-28.77,114.6,289.15,59,90,7.7,AU,1598916829
296,Port Hardy,50.7,-127.42,287.15,100,90,2.6,CA,1598916663
297,Boca da Mata,-9.65,-36.21,297.15,83,75,4.1,BR,1598916835
298,Northam,51.03,-4.22,282.59,92,27,0.89,GB,1598916839
299,Druzhba,52.04,33.95,292.03,48,62,2.44,UA,1598916843
300,Gebre Guracha,9.8,38.4,283.75,100,100,0.24,ET,1598916846
301,Ābādān,30.34,48.3,304.15,62,0,2.1,IR,1598916849
302,Santa Isabel Rio Negro,-0.41,-65.02,298.57,75,10,0.94,BR,1598916853
303,Sasykoli,47.55,47.0,295.2,34,0,3.76,RU,1598916856
304,Tooele,40.53,-112.3,295.15,26,75,7.2,US,1598916859
305,Rognan,67.1,15.39,285.15,71,75,7.7,NO,1598916863
306,Cap Malheureux,-19.98,57.61,293.15,87,13,3.13,MU,1598916866
307,Ust-Nera,64.57,143.2,281.36,69,98,1.6,RU,1598916869
308,Porosozero,62.72,32.73,281.38,90,97,3.08,RU,1598916873
309,Pando,-34.72,-55.95,281.15,65,90,5.1,UY,1598916876
310,East London,-33.02,27.91,286.89,72,100,3.35,ZA,1598916880
311,Bethel,41.37,-73.41,293.15,64,1,2.31,US,1598916883
312,Laguna,38.42,-121.42,308.71,26,1,4.1,US,1598916886
313,Tocopilla,-22.09,-70.2,288.41,62,40,1.89,CL,1598916890
314,Nurota,40.56,65.69,291.15,31,0,3.1,UZ,1598916893
315,Flinders,-34.58,150.86,288.15,65,35,1.34,AU,1598916897
316,Forio,40.73,13.86,293.15,85,9,0.45,IT,1598916900
317,Sibolga,1.74,98.78,297.97,82,100,1.8,ID,1598916903
318,Maniitsoq,65.42,-52.9,281.03,72,12,6.84,GL,1598916907
319,Richards Bay,-28.78,32.04,288.79,72,100,0.43,ZA,1598916910
320,Narsaq,60.92,-46.05,282.15,70,59,2.1,GL,1598916914
321,Tura,25.52,90.22,297.43,89,100,1.06,IN,1598916917
322,Jinchang,38.5,102.17,292.7,34,96,1.83,CN,1598916921
323,Portland,45.52,-122.68,297.59,49,75,2.66,US,1598916866
324,Carutapera,-1.2,-46.02,298.59,82,6,3.09,BR,1598916927
325,Mayo,38.89,-76.51,295.93,88,90,3.1,US,1598916931
326,Biak,-0.91,122.88,300.23,74,48,1.44,ID,1598916934
327,Nanortalik,60.14,-45.24,279.68,88,84,2.66,GL,1598916938
328,Anzio,41.49,12.62,291.15,88,20,3.6,IT,1598916941
329,Itaituba,-4.28,-55.98,299.23,65,79,0.49,BR,1598916944
330,Kabalo,-6.05,26.92,297.52,72,12,1.3,CD,1598916948
331,Nizhniy Tsasuchey,50.52,115.13,286.52,86,100,4.32,RU,1598916951
332,Ibrā’,22.69,58.53,300.26,59,84,1.46,OM,1598916954
333,Adeje,28.12,-16.73,296.48,69,20,3.6,ES,1598916958
334,Tiksi,71.69,128.87,279.62,81,0,5.22,RU,1598916961
335,Great Falls,47.5,-111.3,292.15,24,90,6.2,US,1598916813
336,Mairena del Alcor,37.37,-5.75,297.59,44,0,0.5,ES,1598916968
337,Río Gallegos,-51.62,-69.22,276.15,69,54,3.1,AR,1598916765
338,Meadow Lake,34.8,-106.54,304.15,18,75,7.97,US,1598916975
339,Port-Gentil,-0.72,8.78,298.15,83,75,5.64,GA,1598916810
340,Tuy Hoa,13.08,109.3,299.68,81,90,2.67,VN,1598916981
341,Koumac,-20.57,164.28,295.44,54,16,3.58,NC,1598916985
342,Buala,-8.14,159.59,303.03,69,86,3.53,SB,1598916988
343,Chemin Grenier,-20.49,57.47,294.15,83,75,6.7,MU,1598916992
344,Mulanje,-16.03,35.5,291.77,83,4,3.74,MW,1598916997
345,São João dos Patos,-6.5,-43.7,300.21,30,0,3.06,BR,1598917002
346,Wattegama,6.8,81.48,297.55,86,93,1.73,LK,1598917005
347,Ust-Tsilma,65.44,52.15,278.35,96,59,2.08,RU,1598917009
348,La Orilla,17.98,-102.23,300.78,79,45,1.79,MX,1598917012
349,Alice Springs,-23.7,133.88,297.04,36,0,3.1,AU,1598917015
350,Hirara,24.8,125.28,300.15,94,75,13.9,JP,1598917019
351,Muros,42.78,-9.06,288.71,84,100,0.45,ES,1598917022
352,Knysna,-34.04,23.05,284.09,68,100,3.04,ZA,1598917025
353,Puerto Madero,14.72,-92.42,303.15,74,40,3.6,MX,1598917029
354,Neiafu,-18.65,-173.98,301.15,74,20,4.6,TO,1598917032
355,Oktyabr'skiy,54.48,53.47,289.56,74,0,2.95,RU,1598917036
356,Lethem,3.38,-59.8,298.96,78,38,0.67,GY,1598917039
357,Gravdal,68.12,13.5,284.65,79,100,12.54,NO,1598917042
358,Teguise,29.06,-13.56,296.15,88,75,6.7,ES,1598917046
359,Shache,38.42,77.24,291.62,41,83,4.24,CN,1598917049
360,kimparana,12.83,-4.92,296.01,94,100,3.72,ML,1598917053
361,Halifax,44.65,-63.57,290.93,55,20,2.1,CA,1598916815
362,College,64.86,-147.8,291.15,42,75,0.87,US,1598917059
363,Eureka,40.8,-124.16,300.93,36,1,6.2,US,1598917034
364,Neturhāt,23.48,84.27,292.87,100,99,0.65,IN,1598917066
365,Guayaramerín,-10.84,-65.36,301.17,51,77,0.79,BO,1598917070
366,Verkhoyansk,67.54,133.38,285.87,54,58,0.08,RU,1598917073
367,Brigantine,39.41,-74.36,295.93,78,20,2.1,US,1598917076
368,Labuhan,-6.88,112.21,298.81,77,68,4.92,ID,1598917080
369,Tahlequah,35.92,-94.97,300.93,74,1,2.1,US,1598917083
370,Hithadhoo,-0.6,73.08,299.57,79,100,4.97,MV,1598917086
371,Haines Junction,60.75,-137.51,286.09,55,0,5.73,CA,1598917090
372,Malartic,48.13,-78.13,290.37,59,75,5.1,CA,1598917093
373,Winnemucca,40.97,-117.74,302.15,14,1,6.7,US,1598917096
374,Mbandaka,0.05,18.26,294.73,92,73,1.29,CD,1598917100
375,Havre-St-Pierre,50.23,-63.6,284.15,76,20,3.6,CA,1598917103
376,Porto Santo,33.07,-16.34,294.15,73,20,6.2,PT,1598917107
377,Rio Brilhante,-21.8,-54.55,297.15,64,20,2.83,BR,1598917110
378,Charkhi Dādri,28.6,76.27,299.91,78,2,1.77,IN,1598917113
379,Ostrovnoy,68.05,39.51,281.01,87,53,0.93,RU,1598917117
380,Nānākuli,21.39,-158.15,304.15,55,75,6.2,US,1598917120
381,Puerto Gaitán,4.31,-72.08,300.12,73,31,1.79,CO,1598917124
382,Hamilton,39.18,-84.53,299.26,78,75,2.6,US,1598917127
383,Santa Fe,-31.63,-60.7,286.48,48,100,1.79,AR,1598917131
384,Bilibino,68.05,166.44,278.18,67,92,2.23,RU,1598917134
385,Colac,-38.33,143.58,279.82,99,100,0.45,AU,1598917138
386,Smithers,54.78,-127.17,291.15,63,75,3.1,CA,1598917142
387,Urengoy,65.97,78.37,281.8,91,50,6.66,RU,1598917145
388,Ayan,56.45,138.17,285.59,81,97,4.93,RU,1598917149
389,Barabai,-2.58,115.38,298.96,82,100,0.18,ID,1598917152
390,Fairbanks,64.84,-147.72,291.15,42,20,2.1,US,1598917156
391,Salalah,17.02,54.09,298.15,100,90,1.0,OM,1598917159
392,Kaitangata,-46.28,169.85,281.48,61,84,2.24,NZ,1598917162
393,Freudenstadt,48.43,8.42,287.04,97,91,0.51,DE,1598917166
394,Samarai,-10.62,150.67,298.61,87,90,7.98,PG,1598917169
395,Grindavik,63.84,-22.43,284.15,93,75,5.1,IS,1598917173
396,Comarapa,-17.9,-64.48,286.57,89,4,1.51,BO,1598917176
397,Matamoros,25.53,-103.25,311.15,21,75,1.0,MX,1598916991
398,Faanui,-16.48,-151.75,298.45,78,17,9.68,PF,1598917183
399,Kiama,-34.68,150.87,288.15,65,39,1.34,AU,1598917187
400,Qaqortoq,60.72,-46.03,282.15,70,72,2.1,GL,1598917190
401,San Miguel de Cozumel,20.51,-86.95,304.15,70,20,3.6,MX,1598917193
402,Tanete,-3.94,119.78,297.4,91,100,1.84,ID,1598917197
403,Xapuri,-10.65,-68.5,296.59,78,100,0.6,BR,1598917200
404,Kabanjahe,3.1,98.49,291.09,97,100,1.57,ID,1598917204
405,Bétaré Oya,5.6,14.08,292.53,96,99,1.44,CM,1598917207
406,Bogatić,44.84,19.48,294.15,64,61,3.6,RS,1598917210
407,Nantucket,41.28,-70.1,291.15,77,1,2.6,US,1598917120
408,Kawalu,-7.38,108.21,295.53,86,79,0.15,ID,1598917217
409,Belgrade,44.8,20.47,294.15,64,26,4.6,RS,1598916756
410,Umm Hājar,13.3,19.7,297.29,80,100,3.15,TD,1598917223
411,Isāgarh,24.83,77.88,295.85,96,69,3.62,IN,1598917227
412,Maesteg,51.61,-3.66,284.26,90,6,1.49,GB,1598917230
413,Paamiut,61.99,-49.67,278.74,88,0,1.78,GL,1598917233
414,Zhigansk,66.77,123.37,283.54,79,80,0.91,RU,1598917236
415,Chapais,49.78,-74.85,288.15,54,40,3.1,CA,1598917240
416,Musiri,10.93,78.45,298.15,83,75,4.1,IN,1598917243
417,Bubaque,11.28,-15.83,299.64,83,100,11.11,GW,1598917246
418,Hofn,64.25,-15.21,283.53,91,64,2.27,IS,1598917249
419,Ningxiang,37.34,111.21,291.42,49,0,0.82,CN,1598917253
420,Cumberland,35.05,-78.87,299.26,100,90,1.5,US,1598917256
421,Stephenville,32.22,-98.2,310.15,30,1,5.1,US,1598917259
422,Maroantsetra,-15.43,49.73,292.28,87,19,1.18,MG,1598917262
423,Meulaboh,4.14,96.13,296.75,95,100,3.6,ID,1598917266
424,Novaya Igirma,57.13,103.91,283.75,89,36,1.61,RU,1598917269
425,Ugoofaaru,5.67,73.0,301.33,75,100,4.54,MV,1598917272
426,Kapuskasing,49.42,-82.43,292.15,59,90,5.7,CA,1598917275
427,Trogir,43.51,16.25,290.37,82,64,0.5,HR,1598917279
428,Turaif,31.67,38.66,300.15,19,0,4.1,SA,1598917264
429,Lokosovo,61.13,74.82,283.63,95,21,4.99,RU,1598917285
430,Ardooie,50.98,3.2,284.82,89,56,1.34,BE,1598917288
431,Port Lincoln,-34.73,135.87,286.52,55,88,8.51,AU,1598917291
432,Huayucachi,-12.13,-75.23,285.31,57,69,2.23,PE,1598917295
433,Bandarbeyla,9.49,50.81,298.21,78,14,9.01,SO,1598917298
434,Porto Velho,-8.76,-63.9,297.15,94,75,1.0,BR,1598917268
435,Vila Velha,-20.33,-40.29,296.15,83,75,4.1,BR,1598917304
436,Kem',64.96,34.58,280.85,86,26,1.73,RU,1598917308
437,Sørland,67.67,12.69,284.93,79,100,8.55,NO,1598917311
438,Praia da Vitória,38.73,-27.07,295.15,78,20,4.32,PT,1598917314
439,Gazojak,41.19,61.4,293.15,31,13,4.02,TM,1598917317
440,Bud,39.45,-86.18,298.71,78,40,1.85,US,1598917321
441,Clovis,36.83,-119.7,310.37,19,1,4.1,US,1598917223
442,Acaraú,-2.89,-40.12,298.95,78,0,8.32,BR,1598917327
443,Pokhara,28.23,83.98,294.7,80,33,1.04,NP,1598917142
444,Loviisa,60.46,26.23,280.93,96,99,4.91,FI,1598917333
445,Batemans Bay,-35.72,150.18,285.93,77,0,0.89,AU,1598917337
446,Alta Floresta,-9.88,-56.09,301.38,27,2,1.77,BR,1598917340
447,Galveston,29.37,-94.97,306.48,70,1,8.2,US,1598917343
448,Omboué,-1.57,9.26,295.91,86,100,3.44,GA,1598917346
449,Victoria Point,-27.58,153.3,295.93,68,0,2.68,AU,1598917349
450,Itum-Kale,42.74,45.58,290.23,54,2,3.39,RU,1598917123
451,Kāzerūn,29.62,51.65,297.84,19,0,2.05,IR,1598917356
452,Kaeo,-35.1,173.78,289.51,66,85,4.74,NZ,1598917359
453,Buraidah,26.33,43.98,303.15,22,46,1.5,SA,1598917363
454,Rosetown,51.55,-108.0,292.04,25,6,3.13,CA,1598917366
455,Port Moresby,-9.44,147.18,301.15,78,75,5.1,PG,1598917369
456,Wewak,-3.55,143.63,301.63,76,75,1.35,PG,1598917373
457,Lábrea,-7.26,-64.8,297.67,85,69,1.71,BR,1598917376
458,Chalchuapa,13.99,-89.68,304.15,58,1,1.62,SV,1598917379
459,Kletskaya,49.31,43.06,294.03,31,0,3.44,RU,1598917382
460,Makakilo City,21.35,-158.09,304.15,55,75,6.2,US,1598917386
461,Lorengau,-2.02,147.27,302.06,73,22,1.78,PG,1598917389
462,Manta,-0.95,-80.73,296.15,83,75,5.7,EC,1598917291
463,Karratha,-20.74,116.85,299.59,23,78,3.66,AU,1598917395
464,Poum,-20.23,164.02,294.09,65,20,3.3,NC,1598917399
465,Chabahar,25.29,60.64,300.59,81,5,3.11,IR,1598917402
466,Fomboni,-12.28,43.74,297.89,75,4,3.76,KM,1598917405
467,Okha,53.57,142.95,285.74,94,100,7.43,RU,1598917408
468,Mugur-Aksy,50.35,90.5,279.75,62,0,1.71,RU,1598917412
469,Codrington,-38.27,141.97,282.25,73,100,6.1,AU,1598917415
470,Quelimane,-17.88,36.89,294.57,94,15,2.07,MZ,1598917418
471,Jining,35.41,116.58,300.37,1,0,0.45,CN,1598917381
472,Moba,33.23,105.02,286.13,84,40,1.47,CN,1598917425
473,Izhma,65.01,53.91,281.71,94,99,2.61,RU,1598917428
474,Damietta,31.42,31.81,301.15,83,0,4.1,EG,1598917432
475,Inírida,3.87,-67.92,298.68,80,34,0.26,CO,1598917435
476,Barcelos,41.54,-8.62,290.93,82,100,2.1,PT,1598917277
477,Katsuura,35.13,140.3,298.71,78,75,5.7,JP,1598917441
478,Nuuk,64.18,-51.72,281.15,87,0,4.1,GL,1598917445
479,Martapura,-3.42,114.85,298.15,94,99,1.0,ID,1598917448
480,Saldanha,-33.01,17.94,281.98,84,3,3.67,ZA,1598917452
481,Bourail,-21.57,165.48,295.2,51,14,2.83,NC,1598917455
482,Dmitrovsk-Orlovskiy,52.51,35.15,291.36,51,85,3.26,RU,1598917458
483,Villazón,-22.09,-65.59,283.41,52,84,5.3,BO,1598917462
484,Impfondo,1.64,18.07,295.27,90,72,0.89,CG,1598917465
485,Progreso,21.28,-89.67,307.59,52,40,5.1,MX,1598917468
486,Owase,34.07,136.2,302.57,72,7,2.49,JP,1598917472
487,Hvolsvollur,63.75,-20.22,283.71,98,100,6.71,IS,1598917475
488,Visnes,59.36,5.22,282.15,81,11,1.5,NO,1598917478
489,Dolisie,-4.2,12.67,294.0,85,66,1.87,CG,1598917482
490,Arman',59.7,150.17,285.37,73,56,3.12,RU,1598917485
491,Khanpur,28.65,70.66,299.2,79,98,9.79,PK,1598917488
492,Alenquer,-1.94,-54.74,298.15,83,19,2.1,BR,1598917409
493,Province of Mantua,45.17,10.78,288.71,92,100,2.75,IT,1598917459
494,Henties Bay,-22.12,14.28,283.71,82,0,4.21,NA,1598917498
495,Sola,-13.88,167.55,299.82,83,100,9.62,VU,1598917501
496,Bogorodskoye,56.55,37.88,290.76,96,71,4.73,RU,1598917505
497,Sharlyk,52.92,54.75,289.65,75,0,0.47,RU,1598917508
498,Avera,33.19,-82.53,303.15,94,1,2.1,US,1598917511
499,Alugan,12.22,125.48,301.22,80,100,4.32,PH,1598917514
500,Berlevåg,70.86,29.09,281.63,72,57,10.38,NO,1598917518
501,Martinsville,36.69,-79.87,295.37,100,90,2.1,US,1598917507
502,Slobozia,46.73,29.71,295.15,53,0,1.5,MD,1598917524
503,Hobyo,5.35,48.53,298.48,82,43,11.33,SO,1598917527
504,Ocean City,39.28,-74.57,296.48,78,20,2.1,US,1598917531
505,Policoro,40.21,16.67,298.71,64,55,0.89,IT,1598917534
506,Shingū,33.73,135.98,303.15,70,20,1.0,JP,1598917537
507,Étalle,49.68,5.6,285.93,87,54,0.45,BE,1598917540
508,Araceli,10.55,119.99,301.85,76,99,4.25,PH,1598917544
509,Ponta Delgada,37.73,-25.67,296.15,83,20,6.7,PT,1598917547
510,Rundu,-17.93,19.77,288.95,32,0,1.79,NA,1598917550
511,Petropavlovsk-Kamchatskiy,53.05,158.65,286.15,71,42,2.0,RU,1598917553
512,Porto-Novo,6.5,2.6,299.15,83,40,5.1,BJ,1598917557
513,Jieshi,22.81,115.83,302.02,79,3,4.6,CN,1598917560
514,Itarema,-2.92,-39.92,299.05,78,0,8.14,BR,1598917563
515,Loa Janan,-0.58,117.09,297.04,96,100,1.26,ID,1598917567
516,Rawlins,41.79,-107.24,290.15,23,90,5.7,US,1598917570
517,Timizart,36.8,4.27,290.04,72,0,2.92,DZ,1598917573
518,Saint-Augustin,51.23,-58.65,282.49,84,100,4.53,CA,1598917576
519,Ilo,-17.64,-71.34,288.61,79,81,2.36,PE,1598917580
520,Pueblo Nuevo,23.38,-105.38,292.0,96,100,1.95,MX,1598917583
521,Ambon City,-3.7,128.18,299.15,94,75,2.6,ID,1598917540
522,Ponta do Sol,32.67,-17.1,295.15,64,20,9.8,PT,1598917590
523,Lázaro Cárdenas,17.96,-102.2,300.99,77,47,1.78,MX,1598917593
524,Fort Nelson,58.81,-122.7,288.15,67,40,1.5,CA,1598917596
525,Isangel,-19.55,169.27,297.15,69,20,5.27,VU,1598917599
526,Ivolginsk,51.75,107.28,286.15,76,40,5.0,RU,1598917603
527,Margate,51.38,1.39,289.26,83,79,0.89,GB,1598917606
528,Betafo,-19.83,46.85,284.83,81,12,1.91,MG,1598917609
529,Novikovo,51.15,37.89,292.15,47,0,3.08,RU,1598917612
530,Pitimbu,-7.47,-34.81,296.15,100,90,3.6,BR,1598917616
531,Tevriz,57.51,72.4,286.29,95,91,4.08,RU,1598917619
532,Asău,46.43,26.4,294.26,60,0,1.5,RO,1598917622
533,Gīdam,18.98,81.4,296.92,91,100,0.98,IN,1598917626
534,Waverly,42.74,-84.62,297.15,50,1,3.6,US,1598917629
535,Monte Alegre,-2.01,-54.07,298.61,80,37,0.66,BR,1598917632
536,Mabaruma,8.2,-59.78,297.85,94,88,1.77,GY,1598917635
537,Bilma,18.69,12.92,305.74,36,0,3.88,NE,1598917639
538,Pringsewu,-5.36,104.97,296.82,89,72,0.65,ID,1598917642
539,Mujiayingzi,42.12,118.78,293.21,47,0,3.9,CN,1598917646
540,Aranos,-24.13,19.12,280.49,37,0,4.93,NA,1598917649
541,Sanmenxia,34.77,111.18,294.67,62,4,2.02,CN,1598917652
542,Ust'-Kulom,61.69,53.69,280.34,95,91,0.37,RU,1598917656
543,Vung Tau,10.35,107.08,300.86,78,65,3.81,VN,1598917659
544,Cullera,39.17,-0.25,295.93,71,39,1.34,ES,1598917662
545,Astoria,46.19,-123.83,293.71,68,1,5.1,US,1598917666
546,Miyako,39.64,141.95,293.7,87,100,4.62,JP,1598917669
547,Cockburn Town,21.46,-71.14,303.15,70,40,7.2,TC,1598917673
548,Nyurba,63.28,118.33,284.75,81,39,2.17,RU,1598917676
549,Susanville,40.42,-120.65,305.15,11,1,1.5,US,1598917679
550,Inhambane,-23.86,35.38,292.48,77,100,6.28,MZ,1598917682
551,Uyuni,-20.46,-66.83,285.43,40,93,4.52,BO,1598917686
552,Spring Valley,36.11,-115.25,312.15,6,20,3.1,US,1598917689
553,Ngunguru,-35.62,174.5,289.11,68,93,3.07,NZ,1598917692
554,Nouadhibou,20.93,-17.03,295.15,83,0,6.7,MR,1598917696
555,Mazagão,-0.12,-51.29,301.15,78,75,4.1,BR,1598917699
556,Tefé,-3.35,-64.71,302.15,79,20,2.1,BR,1598917702
557,Amahai,-3.33,128.92,300.28,79,95,1.88,ID,1598917706
558,Kathu,7.92,98.33,302.59,94,20,0.5,TH,1598917709
559,Cochrane,51.18,-114.47,291.15,34,1,5.1,CA,1598917712
560,San Policarpo,12.18,125.51,301.4,80,100,4.62,PH,1598917715
561,Taywarah,33.35,64.42,278.94,60,0,3.47,AF,1598917719
562,Blackwater,-23.58,148.88,295.46,48,0,0.95,AU,1598917722
563,Sabha,27.04,14.43,303.43,13,0,5.6,LY,1598917725
564,Alindao,5.03,21.21,293.73,94,0,0.68,CF,1598917729
565,Laas,46.62,10.7,282.15,4,75,2.6,IT,1598917732
566,Port-Cartier,50.03,-66.87,285.37,71,75,1.5,CA,1598917735
567,Diffa,13.32,12.61,301.93,50,89,2.54,NE,1598917738
